{
"type": "FeatureCollection",
"name": "stops",
"crs": { "type": "name", "properties": { "name": "urn:ogc:def:crs:OGC:1.3:CRS84" } },
"features": [
{ "type": "Feature", "properties": { "stop_id": "CHAFFAN1", "stop_name": "Chaffanjon", "stop_lat": 47.2461, "stop_lon": 6.047886, "location_type": 0, "parent_station": "st_chaffanjon", "wheelchair_boarding": 0 }, "geometry": { "type": "Point", "coordinates": [ 6.047886, 47.2461 ] } },
{ "type": "Feature", "properties": { "stop_id": "CHRUJM", "stop_name": "CHRU Minjoz", "stop_lat": 47.22732, "stop_lon": 5.965506, "location_type": 0, "parent_station": "st_chru_minjoz", "wheelchair_boarding": 1 }, "geometry": { "type": "Point", "coordinates": [ 5.965506, 47.22732 ] } },
{ "type": "Feature", "properties": { "stop_id": "FLEMING1", "stop_name": "Fleming", "stop_lat": 47.23086, "stop_lon": 5.96804, "location_type": 0, "parent_station": "st_fleming", "wheelchair_boarding": 0 }, "geometry": { "type": "Point", "coordinates": [ 5.96804, 47.23086 ] } },
{ "type": "Feature", "properties": { "stop_id": "EDISON3", "stop_name": "Edison", "stop_lat": 47.232925, "stop_lon": 5.973859, "location_type": 0, "parent_station": "st_edison", "wheelchair_boarding": 0 }, "geometry": { "type": "Point", "coordinates": [ 5.973859, 47.232925 ] } },
{ "type": "Feature", "properties": { "stop_id": "FRESNEL3", "stop_name": "Fresnel", "stop_lat": 47.236423, "stop_lon": 5.978027, "location_type": 0, "parent_station": "st_fresnel", "wheelchair_boarding": 0 }, "geometry": { "type": "Point", "coordinates": [ 5.978027, 47.236423 ] } },
{ "type": "Feature", "properties": { "stop_id": "LAVOISI1", "stop_name": "Lavoisier", "stop_lat": 47.235012, "stop_lon": 5.984728, "location_type": 0, "parent_station": "st_lavoisier", "wheelchair_boarding": 1 }, "geometry": { "type": "Point", "coordinates": [ 5.984728, 47.235012 ] } },
{ "type": "Feature", "properties": { "stop_id": "AMPERE1", "stop_name": "Ampère", "stop_lat": 47.237457, "stop_lon": 5.98833, "location_type": 0, "parent_station": "st_ampere", "wheelchair_boarding": 0 }, "geometry": { "type": "Point", "coordinates": [ 5.98833, 47.237457 ] } },
{ "type": "Feature", "properties": { "stop_id": "SAPINS1", "stop_name": "Sapins", "stop_lat": 47.23447, "stop_lon": 5.989477, "location_type": 0, "parent_station": "st_sapins", "wheelchair_boarding": 0 }, "geometry": { "type": "Point", "coordinates": [ 5.989477, 47.23447 ] } },
{ "type": "Feature", "properties": { "stop_id": "BASILIQ1", "stop_name": "Basilique", "stop_lat": 47.232895, "stop_lon": 5.988601, "location_type": 0, "parent_station": "st_basilique", "wheelchair_boarding": 0 }, "geometry": { "type": "Point", "coordinates": [ 5.988601, 47.232895 ] } },
{ "type": "Feature", "properties": { "stop_id": "MESLIER2", "stop_name": "Meslier", "stop_lat": 47.231228, "stop_lon": 5.993072, "location_type": 0, "parent_station": "st_meslier", "wheelchair_boarding": 0 }, "geometry": { "type": "Point", "coordinates": [ 5.993072, 47.231228 ] } },
{ "type": "Feature", "properties": { "stop_id": "PELOUSE1", "stop_name": "Pelouse", "stop_lat": 47.233566, "stop_lon": 5.993962, "location_type": 0, "parent_station": "st_pelouse", "wheelchair_boarding": 1 }, "geometry": { "type": "Point", "coordinates": [ 5.993962, 47.233566 ] } },
{ "type": "Feature", "properties": { "stop_id": "ATEMUNI3", "stop_name": "Ateliers Municipaux", "stop_lat": 47.23571, "stop_lon": 5.995441, "location_type": 0, "parent_station": "st_ateliers_municipaux", "wheelchair_boarding": 0 }, "geometry": { "type": "Point", "coordinates": [ 5.995441, 47.23571 ] } },
{ "type": "Feature", "properties": { "stop_id": "CENTTRI1", "stop_name": "Centre de Tri", "stop_lat": 47.2363, "stop_lon": 5.998355, "location_type": 0, "parent_station": "st_centre_de_tri", "wheelchair_boarding": 1 }, "geometry": { "type": "Point", "coordinates": [ 5.998355, 47.2363 ] } },
{ "type": "Feature", "properties": { "stop_id": "CASERNE1", "stop_name": "Casernes", "stop_lat": 47.23705, "stop_lon": 6.004314, "location_type": 0, "parent_station": "st_casernes", "wheelchair_boarding": 0 }, "geometry": { "type": "Point", "coordinates": [ 6.004314, 47.23705 ] } },
{ "type": "Feature", "properties": { "stop_id": "DAVID1", "stop_name": "David", "stop_lat": 47.23722, "stop_lon": 6.00638, "location_type": 0, "parent_station": "st_david", "wheelchair_boarding": 0 }, "geometry": { "type": "Point", "coordinates": [ 6.00638, 47.23722 ] } },
{ "type": "Feature", "properties": { "stop_id": "MARMIER2", "stop_name": "Marmier", "stop_lat": 47.23976, "stop_lon": 6.00522, "location_type": 0, "parent_station": "st_marmier", "wheelchair_boarding": 0 }, "geometry": { "type": "Point", "coordinates": [ 6.00522, 47.23976 ] } },
{ "type": "Feature", "properties": { "stop_id": "GIBELOT1", "stop_name": "Gibelotte", "stop_lat": 47.24246, "stop_lon": 6.0098286, "location_type": 0, "parent_station": "st_gibelotte", "wheelchair_boarding": 1 }, "geometry": { "type": "Point", "coordinates": [ 6.0098286, 47.24246 ] } },
{ "type": "Feature", "properties": { "stop_id": "VOIRIN1", "stop_name": "Voirin", "stop_lat": 47.242233, "stop_lon": 6.0138493, "location_type": 0, "parent_station": "st_voirin", "wheelchair_boarding": 1 }, "geometry": { "type": "Point", "coordinates": [ 6.0138493, 47.242233 ] } },
{ "type": "Feature", "properties": { "stop_id": "SIFFERT1", "stop_name": "Siffert", "stop_lat": 47.24125, "stop_lon": 6.015287, "location_type": 0, "parent_station": "st_siffert", "wheelchair_boarding": 0 }, "geometry": { "type": "Point", "coordinates": [ 6.015287, 47.24125 ] } },
{ "type": "Feature", "properties": { "stop_id": "OUDET1", "stop_name": "Oudet", "stop_lat": 47.23724, "stop_lon": 6.014594, "location_type": 0, "parent_station": "st_oudet", "wheelchair_boarding": 1 }, "geometry": { "type": "Point", "coordinates": [ 6.014594, 47.23724 ] } },
{ "type": "Feature", "properties": { "stop_id": "HMAI1", "stop_name": "8 Mai", "stop_lat": 47.234844, "stop_lon": 6.018151, "location_type": 0, "parent_station": "st_8_mai", "wheelchair_boarding": 0 }, "geometry": { "type": "Point", "coordinates": [ 6.018151, 47.234844 ] } },
{ "type": "Feature", "properties": { "stop_id": "CHAMESP1", "stop_name": "Chamars Esplanade", "stop_lat": 47.23478, "stop_lon": 6.020848, "location_type": 0, "parent_station": "st_chamars_esplanade", "wheelchair_boarding": 0 }, "geometry": { "type": "Point", "coordinates": [ 6.020848, 47.23478 ] } },
{ "type": "Feature", "properties": { "stop_id": "MAIRIE1", "stop_name": "Mairie", "stop_lat": 47.23661, "stop_lon": 6.022457, "location_type": 0, "parent_station": "st_mairie", "wheelchair_boarding": 0 }, "geometry": { "type": "Point", "coordinates": [ 6.022457, 47.23661 ] } },
{ "type": "Feature", "properties": { "stop_id": "GRANVEL1", "stop_name": "Granvelle", "stop_lat": 47.23531, "stop_lon": 6.0254, "location_type": 0, "parent_station": "st_granvelle", "wheelchair_boarding": 1 }, "geometry": { "type": "Point", "coordinates": [ 6.0254, 47.23531 ] } },
{ "type": "Feature", "properties": { "stop_id": "SMAURIC1", "stop_name": "St Maurice", "stop_lat": 47.235756, "stop_lon": 6.027452, "location_type": 0, "parent_station": "st_st_maurice", "wheelchair_boarding": 0 }, "geometry": { "type": "Point", "coordinates": [ 6.027452, 47.235756 ] } },
{ "type": "Feature", "properties": { "stop_id": "VICHUGO1", "stop_name": "Victor Hugo", "stop_lat": 47.234978, "stop_lon": 6.029688, "location_type": 0, "parent_station": "st_victor_hugo", "wheelchair_boarding": 1 }, "geometry": { "type": "Point", "coordinates": [ 6.029688, 47.234978 ] } },
{ "type": "Feature", "properties": { "stop_id": "JEANCOR1", "stop_name": "Jean Cornet", "stop_lat": 47.23638, "stop_lon": 6.028897, "location_type": 0, "parent_station": "st_jean_cornet", "wheelchair_boarding": 1 }, "geometry": { "type": "Point", "coordinates": [ 6.028897, 47.23638 ] } },
{ "type": "Feature", "properties": { "stop_id": "GRANGES1", "stop_name": "Granges", "stop_lat": 47.23782, "stop_lon": 6.0264, "location_type": 0, "parent_station": "st_granges", "wheelchair_boarding": 0 }, "geometry": { "type": "Point", "coordinates": [ 6.0264, 47.23782 ] } },
{ "type": "Feature", "properties": { "stop_id": "POSTE1", "stop_name": "Poste", "stop_lat": 47.239204, "stop_lon": 6.025745, "location_type": 0, "parent_station": "st_poste", "wheelchair_boarding": 1 }, "geometry": { "type": "Point", "coordinates": [ 6.025745, 47.239204 ] } },
{ "type": "Feature", "properties": { "stop_id": "CENSTPI1", "stop_name": "Centre St Pierre", "stop_lat": 47.240437, "stop_lon": 6.028455, "location_type": 0, "parent_station": "st_centre_st_pierre", "wheelchair_boarding": 0 }, "geometry": { "type": "Point", "coordinates": [ 6.028455, 47.240437 ] } },
{ "type": "Feature", "properties": { "stop_id": "PONTBRE1", "stop_name": "Pont de Bregille", "stop_lat": 47.23797, "stop_lon": 6.03277, "location_type": 0, "parent_station": "st_pont_de_bregille", "wheelchair_boarding": 0 }, "geometry": { "type": "Point", "coordinates": [ 6.03277, 47.23797 ] } },
{ "type": "Feature", "properties": { "stop_id": "SPORNAU3", "stop_name": "Sport Nautique", "stop_lat": 47.237095, "stop_lon": 6.035275, "location_type": 0, "parent_station": "st_sport_nautique", "wheelchair_boarding": 0 }, "geometry": { "type": "Point", "coordinates": [ 6.035275, 47.237095 ] } },
{ "type": "Feature", "properties": { "stop_id": "FONTENO3", "stop_name": "Fontenottes", "stop_lat": 47.238064, "stop_lon": 6.036415, "location_type": 0, "parent_station": "st_fontenottes", "wheelchair_boarding": 0 }, "geometry": { "type": "Point", "coordinates": [ 6.036415, 47.238064 ] } },
{ "type": "Feature", "properties": { "stop_id": "FABRE1", "stop_name": "Fabre", "stop_lat": 47.239, "stop_lon": 6.039701, "location_type": 0, "parent_station": "st_fabre", "wheelchair_boarding": 0 }, "geometry": { "type": "Point", "coordinates": [ 6.039701, 47.239 ] } },
{ "type": "Feature", "properties": { "stop_id": "FORTBRE1", "stop_name": "Fort de Bregille", "stop_lat": 47.240208, "stop_lon": 6.041531, "location_type": 0, "parent_station": "st_fort_de_bregille", "wheelchair_boarding": 0 }, "geometry": { "type": "Point", "coordinates": [ 6.041531, 47.240208 ] } },
{ "type": "Feature", "properties": { "stop_id": "AIGUILL1", "stop_name": "Aiguille", "stop_lat": 47.240772, "stop_lon": 6.038847, "location_type": 0, "parent_station": "st_aiguille", "wheelchair_boarding": 0 }, "geometry": { "type": "Point", "coordinates": [ 6.038847, 47.240772 ] } },
{ "type": "Feature", "properties": { "stop_id": "SALBREG1", "stop_name": "Salins de Bregille", "stop_lat": 47.241714, "stop_lon": 6.040094, "location_type": 0, "parent_station": "st_salins_de_bregille", "wheelchair_boarding": 0 }, "geometry": { "type": "Point", "coordinates": [ 6.040094, 47.241714 ] } },
{ "type": "Feature", "properties": { "stop_id": "GAIFFE1", "stop_name": "Gaiffe", "stop_lat": 47.24273, "stop_lon": 6.041277, "location_type": 0, "parent_station": "st_gaiffe", "wheelchair_boarding": 1 }, "geometry": { "type": "Point", "coordinates": [ 6.041277, 47.24273 ] } },
{ "type": "Feature", "properties": { "stop_id": "HEITZ1", "stop_name": "Heitz", "stop_lat": 47.24416, "stop_lon": 6.043637, "location_type": 0, "parent_station": "st_heitz", "wheelchair_boarding": 0 }, "geometry": { "type": "Point", "coordinates": [ 6.043637, 47.24416 ] } },
{ "type": "Feature", "properties": { "stop_id": "COLOMBO1", "stop_name": "Colombot", "stop_lat": 47.24508, "stop_lon": 6.045645, "location_type": 0, "parent_station": "st_colombot", "wheelchair_boarding": 0 }, "geometry": { "type": "Point", "coordinates": [ 6.045645, 47.24508 ] } },
{ "type": "Feature", "properties": { "stop_id": "P+RHDC01", "stop_name": "Hauts du Chazal", "stop_lat": 47.221443, "stop_lon": 5.951281, "location_type": 0, "parent_station": "st_hauts_du_chazal", "wheelchair_boarding": 0 }, "geometry": { "type": "Point", "coordinates": [ 5.951281, 47.221443 ] } },
{ "type": "Feature", "properties": { "stop_id": "COLOMBO2", "stop_name": "Colombot", "stop_lat": 47.24517, "stop_lon": 6.045755, "location_type": 0, "parent_station": "st_colombot", "wheelchair_boarding": 0 }, "geometry": { "type": "Point", "coordinates": [ 6.045755, 47.24517 ] } },
{ "type": "Feature", "properties": { "stop_id": "HEITZ2", "stop_name": "Heitz", "stop_lat": 47.244274, "stop_lon": 6.043858, "location_type": 0, "parent_station": "st_heitz", "wheelchair_boarding": 0 }, "geometry": { "type": "Point", "coordinates": [ 6.043858, 47.244274 ] } },
{ "type": "Feature", "properties": { "stop_id": "GAIFFE2", "stop_name": "Gaiffe", "stop_lat": 47.242603, "stop_lon": 6.041213, "location_type": 0, "parent_station": "st_gaiffe", "wheelchair_boarding": 1 }, "geometry": { "type": "Point", "coordinates": [ 6.041213, 47.242603 ] } },
{ "type": "Feature", "properties": { "stop_id": "SALBREG2", "stop_name": "Salins de Bregille", "stop_lat": 47.241627, "stop_lon": 6.039823, "location_type": 0, "parent_station": "st_salins_de_bregille", "wheelchair_boarding": 0 }, "geometry": { "type": "Point", "coordinates": [ 6.039823, 47.241627 ] } },
{ "type": "Feature", "properties": { "stop_id": "AIGUILL2", "stop_name": "Aiguille", "stop_lat": 47.240826, "stop_lon": 6.038393, "location_type": 0, "parent_station": "st_aiguille", "wheelchair_boarding": 0 }, "geometry": { "type": "Point", "coordinates": [ 6.038393, 47.240826 ] } },
{ "type": "Feature", "properties": { "stop_id": "FORTBRE2", "stop_name": "Fort de Bregille", "stop_lat": 47.239983, "stop_lon": 6.041283, "location_type": 0, "parent_station": "st_fort_de_bregille", "wheelchair_boarding": 0 }, "geometry": { "type": "Point", "coordinates": [ 6.041283, 47.239983 ] } },
{ "type": "Feature", "properties": { "stop_id": "FABRE2", "stop_name": "Fabre", "stop_lat": 47.238865, "stop_lon": 6.039383, "location_type": 0, "parent_station": "st_fabre", "wheelchair_boarding": 0 }, "geometry": { "type": "Point", "coordinates": [ 6.039383, 47.238865 ] } },
{ "type": "Feature", "properties": { "stop_id": "FONTENO4", "stop_name": "Fontenottes", "stop_lat": 47.23802, "stop_lon": 6.03633, "location_type": 0, "parent_station": "st_fontenottes", "wheelchair_boarding": 0 }, "geometry": { "type": "Point", "coordinates": [ 6.03633, 47.23802 ] } },
{ "type": "Feature", "properties": { "stop_id": "SPORNAU2", "stop_name": "Sport Nautique", "stop_lat": 47.237015, "stop_lon": 6.035411, "location_type": 0, "parent_station": "st_sport_nautique", "wheelchair_boarding": 0 }, "geometry": { "type": "Point", "coordinates": [ 6.035411, 47.237015 ] } },
{ "type": "Feature", "properties": { "stop_id": "PONTBRE2", "stop_name": "Pont de Bregille", "stop_lat": 47.23801, "stop_lon": 6.03272, "location_type": 0, "parent_station": "st_pont_de_bregille", "wheelchair_boarding": 0 }, "geometry": { "type": "Point", "coordinates": [ 6.03272, 47.23801 ] } },
{ "type": "Feature", "properties": { "stop_id": "CENSTPI2", "stop_name": "Centre St Pierre", "stop_lat": 47.24058, "stop_lon": 6.028269, "location_type": 0, "parent_station": "st_centre_st_pierre", "wheelchair_boarding": 0 }, "geometry": { "type": "Point", "coordinates": [ 6.028269, 47.24058 ] } },
{ "type": "Feature", "properties": { "stop_id": "POSTE2", "stop_name": "Poste", "stop_lat": 47.23971, "stop_lon": 6.026629, "location_type": 0, "parent_station": "st_poste", "wheelchair_boarding": 1 }, "geometry": { "type": "Point", "coordinates": [ 6.026629, 47.23971 ] } },
{ "type": "Feature", "properties": { "stop_id": "HUITSEP1", "stop_name": "8 Septembre", "stop_lat": 47.2378, "stop_lon": 6.024275, "location_type": 0, "parent_station": "st_8_septembre", "wheelchair_boarding": 1 }, "geometry": { "type": "Point", "coordinates": [ 6.024275, 47.2378 ] } },
{ "type": "Feature", "properties": { "stop_id": "CARMES1", "stop_name": "Carmes", "stop_lat": 47.236267, "stop_lon": 6.026047, "location_type": 0, "parent_station": "st_carmes", "wheelchair_boarding": 1 }, "geometry": { "type": "Point", "coordinates": [ 6.026047, 47.236267 ] } },
{ "type": "Feature", "properties": { "stop_id": "GRANVEL2", "stop_name": "Granvelle", "stop_lat": 47.235344, "stop_lon": 6.025431, "location_type": 0, "parent_station": "st_granvelle", "wheelchair_boarding": 1 }, "geometry": { "type": "Point", "coordinates": [ 6.025431, 47.235344 ] } },
{ "type": "Feature", "properties": { "stop_id": "PREFECT1", "stop_name": "Préfecture", "stop_lat": 47.2337, "stop_lon": 6.023057, "location_type": 0, "parent_station": "st_prefecture", "wheelchair_boarding": 1 }, "geometry": { "type": "Point", "coordinates": [ 6.023057, 47.2337 ] } },
{ "type": "Feature", "properties": { "stop_id": "CHAMESP2", "stop_name": "Chamars Esplanade", "stop_lat": 47.23431, "stop_lon": 6.0208, "location_type": 0, "parent_station": "st_chamars_esplanade", "wheelchair_boarding": 0 }, "geometry": { "type": "Point", "coordinates": [ 6.0208, 47.23431 ] } },
{ "type": "Feature", "properties": { "stop_id": "HMAI2", "stop_name": "8 Mai", "stop_lat": 47.23482, "stop_lon": 6.018301, "location_type": 0, "parent_station": "st_8_mai", "wheelchair_boarding": 0 }, "geometry": { "type": "Point", "coordinates": [ 6.018301, 47.23482 ] } },
{ "type": "Feature", "properties": { "stop_id": "JANVIER2", "stop_name": "Janvier", "stop_lat": 47.237698, "stop_lon": 6.015066, "location_type": 0, "parent_station": "st_janvier", "wheelchair_boarding": 1 }, "geometry": { "type": "Point", "coordinates": [ 6.015066, 47.237698 ] } },
{ "type": "Feature", "properties": { "stop_id": "SIFFERT2", "stop_name": "Siffert", "stop_lat": 47.241398, "stop_lon": 6.015444, "location_type": 0, "parent_station": "st_siffert", "wheelchair_boarding": 0 }, "geometry": { "type": "Point", "coordinates": [ 6.015444, 47.241398 ] } },
{ "type": "Feature", "properties": { "stop_id": "VOIRIN2", "stop_name": "Voirin", "stop_lat": 47.242275, "stop_lon": 6.013741, "location_type": 0, "parent_station": "st_voirin", "wheelchair_boarding": 1 }, "geometry": { "type": "Point", "coordinates": [ 6.013741, 47.242275 ] } },
{ "type": "Feature", "properties": { "stop_id": "GIBELOT2", "stop_name": "Gibelotte", "stop_lat": 47.242455, "stop_lon": 6.0096865, "location_type": 0, "parent_station": "st_gibelotte", "wheelchair_boarding": 1 }, "geometry": { "type": "Point", "coordinates": [ 6.0096865, 47.242455 ] } },
{ "type": "Feature", "properties": { "stop_id": "TREPIL1", "stop_name": "Trépillot", "stop_lat": 47.241333, "stop_lon": 6.006978, "location_type": 0, "parent_station": "st_trepillot", "wheelchair_boarding": 0 }, "geometry": { "type": "Point", "coordinates": [ 6.006978, 47.241333 ] } },
{ "type": "Feature", "properties": { "stop_id": "MARMIER1", "stop_name": "Marmier", "stop_lat": 47.239433, "stop_lon": 6.005342, "location_type": 0, "parent_station": "st_marmier", "wheelchair_boarding": 1 }, "geometry": { "type": "Point", "coordinates": [ 6.005342, 47.239433 ] } },
{ "type": "Feature", "properties": { "stop_id": "DAVID2", "stop_name": "David", "stop_lat": 47.237087, "stop_lon": 6.005687, "location_type": 0, "parent_station": "st_david", "wheelchair_boarding": 0 }, "geometry": { "type": "Point", "coordinates": [ 6.005687, 47.237087 ] } },
{ "type": "Feature", "properties": { "stop_id": "CASERNE2", "stop_name": "Casernes", "stop_lat": 47.237076, "stop_lon": 6.003574, "location_type": 0, "parent_station": "st_casernes", "wheelchair_boarding": 0 }, "geometry": { "type": "Point", "coordinates": [ 6.003574, 47.237076 ] } },
{ "type": "Feature", "properties": { "stop_id": "CENTTRI2", "stop_name": "Centre de Tri", "stop_lat": 47.236378, "stop_lon": 5.998833, "location_type": 0, "parent_station": "st_centre_de_tri", "wheelchair_boarding": 0 }, "geometry": { "type": "Point", "coordinates": [ 5.998833, 47.236378 ] } },
{ "type": "Feature", "properties": { "stop_id": "ATEMUNI4", "stop_name": "Ateliers Municipaux", "stop_lat": 47.235645, "stop_lon": 5.9949646, "location_type": 0, "parent_station": "st_ateliers_municipaux", "wheelchair_boarding": 1 }, "geometry": { "type": "Point", "coordinates": [ 5.9949646, 47.235645 ] } },
{ "type": "Feature", "properties": { "stop_id": "PELOUSE2", "stop_name": "Pelouse", "stop_lat": 47.23304, "stop_lon": 5.993867, "location_type": 0, "parent_station": "st_pelouse", "wheelchair_boarding": 1 }, "geometry": { "type": "Point", "coordinates": [ 5.993867, 47.23304 ] } },
{ "type": "Feature", "properties": { "stop_id": "MESLIER1", "stop_name": "Meslier", "stop_lat": 47.23138, "stop_lon": 5.991965, "location_type": 0, "parent_station": "st_meslier", "wheelchair_boarding": 0 }, "geometry": { "type": "Point", "coordinates": [ 5.991965, 47.23138 ] } },
{ "type": "Feature", "properties": { "stop_id": "BASILIQ2", "stop_name": "Basilique", "stop_lat": 47.23322, "stop_lon": 5.989165, "location_type": 0, "parent_station": "st_basilique", "wheelchair_boarding": 0 }, "geometry": { "type": "Point", "coordinates": [ 5.989165, 47.23322 ] } },
{ "type": "Feature", "properties": { "stop_id": "SAPINS2", "stop_name": "Sapins", "stop_lat": 47.23478, "stop_lon": 5.989557, "location_type": 0, "parent_station": "st_sapins", "wheelchair_boarding": 0 }, "geometry": { "type": "Point", "coordinates": [ 5.989557, 47.23478 ] } },
{ "type": "Feature", "properties": { "stop_id": "AMPERE3", "stop_name": "Ampère", "stop_lat": 47.23662, "stop_lon": 5.988662, "location_type": 0, "parent_station": "st_ampere", "wheelchair_boarding": 0 }, "geometry": { "type": "Point", "coordinates": [ 5.988662, 47.23662 ] } },
{ "type": "Feature", "properties": { "stop_id": "LAVOISI2", "stop_name": "Lavoisier", "stop_lat": 47.235043, "stop_lon": 5.98457, "location_type": 0, "parent_station": "st_lavoisier", "wheelchair_boarding": 0 }, "geometry": { "type": "Point", "coordinates": [ 5.98457, 47.235043 ] } },
{ "type": "Feature", "properties": { "stop_id": "FRESNEL4", "stop_name": "Fresnel", "stop_lat": 47.236443, "stop_lon": 5.9779186, "location_type": 0, "parent_station": "st_fresnel", "wheelchair_boarding": 0 }, "geometry": { "type": "Point", "coordinates": [ 5.9779186, 47.236443 ] } },
{ "type": "Feature", "properties": { "stop_id": "EDISON4", "stop_name": "Edison", "stop_lat": 47.232803, "stop_lon": 5.973448, "location_type": 0, "parent_station": "st_edison", "wheelchair_boarding": 0 }, "geometry": { "type": "Point", "coordinates": [ 5.973448, 47.232803 ] } },
{ "type": "Feature", "properties": { "stop_id": "FLEMING2", "stop_name": "Fleming", "stop_lat": 47.23071, "stop_lon": 5.967651, "location_type": 0, "parent_station": "st_fleming", "wheelchair_boarding": 0 }, "geometry": { "type": "Point", "coordinates": [ 5.967651, 47.23071 ] } },
{ "type": "Feature", "properties": { "stop_id": "t_hdc1", "stop_name": "Hauts du Chazal", "stop_lat": 47.221603, "stop_lon": 5.9515543, "location_type": 0, "parent_station": "st_hauts_du_chazal", "wheelchair_boarding": 1 }, "geometry": { "type": "Point", "coordinates": [ 5.9515543, 47.221603 ] } },
{ "type": "Feature", "properties": { "stop_id": "t_ufr1", "stop_name": "UFR Santé", "stop_lat": 47.22361, "stop_lon": 5.9559402, "location_type": 0, "parent_station": "st_ufr_sante", "wheelchair_boarding": 1 }, "geometry": { "type": "Point", "coordinates": [ 5.9559402, 47.22361 ] } },
{ "type": "Feature", "properties": { "stop_id": "t_psan1", "stop_name": "Maison des Familles", "stop_lat": 47.22597, "stop_lon": 5.960198, "location_type": 0, "parent_station": "st_maison_des_familles", "wheelchair_boarding": 1 }, "geometry": { "type": "Point", "coordinates": [ 5.960198, 47.22597 ] } },
{ "type": "Feature", "properties": { "stop_id": "t_chr1", "stop_name": "CHRU Minjoz", "stop_lat": 47.22642, "stop_lon": 5.963888, "location_type": 0, "parent_station": "st_chru_minjoz", "wheelchair_boarding": 1 }, "geometry": { "type": "Point", "coordinates": [ 5.963888, 47.22642 ] } },
{ "type": "Feature", "properties": { "stop_id": "t_idf1", "stop_name": "Ile de France", "stop_lat": 47.221825, "stop_lon": 5.967356, "location_type": 0, "parent_station": "st_ile_de_france", "wheelchair_boarding": 1 }, "geometry": { "type": "Point", "coordinates": [ 5.967356, 47.221825 ] } },
{ "type": "Feature", "properties": { "stop_id": "t_epo1", "stop_name": "Epoisses", "stop_lat": 47.22235, "stop_lon": 5.972772, "location_type": 0, "parent_station": "st_epoisses", "wheelchair_boarding": 1 }, "geometry": { "type": "Point", "coordinates": [ 5.972772, 47.22235 ] } },
{ "type": "Feature", "properties": { "stop_id": "t_allen1", "stop_name": "Allende", "stop_lat": 47.21972, "stop_lon": 5.9736724, "location_type": 0, "parent_station": "st_allende", "wheelchair_boarding": 1 }, "geometry": { "type": "Point", "coordinates": [ 5.9736724, 47.21972 ] } },
{ "type": "Feature", "properties": { "stop_id": "t_micro1", "stop_name": "Micropolis", "stop_lat": 47.22067, "stop_lon": 5.97841, "location_type": 0, "parent_station": "st_micropolis", "wheelchair_boarding": 1 }, "geometry": { "type": "Point", "coordinates": [ 5.97841, 47.22067 ] } },
{ "type": "Feature", "properties": { "stop_id": "t_malc1", "stop_name": "Malcombe", "stop_lat": 47.22261, "stop_lon": 5.9826303, "location_type": 0, "parent_station": "st_malcombe", "wheelchair_boarding": 1 }, "geometry": { "type": "Point", "coordinates": [ 5.9826303, 47.22261 ] } },
{ "type": "Feature", "properties": { "stop_id": "t_rose1", "stop_name": "Rosemont", "stop_lat": 47.225025, "stop_lon": 5.9952416, "location_type": 0, "parent_station": "st_rosemont", "wheelchair_boarding": 1 }, "geometry": { "type": "Point", "coordinates": [ 5.9952416, 47.225025 ] } },
{ "type": "Feature", "properties": { "stop_id": "t_brula1", "stop_name": "Brulard", "stop_lat": 47.228474, "stop_lon": 6.0059133, "location_type": 0, "parent_station": "st_brulard", "wheelchair_boarding": 1 }, "geometry": { "type": "Point", "coordinates": [ 6.0059133, 47.228474 ] } },
{ "type": "Feature", "properties": { "stop_id": "t_poly1", "stop_name": "Polygone", "stop_lat": 47.22993, "stop_lon": 6.010826, "location_type": 0, "parent_station": "st_polygone", "wheelchair_boarding": 1 }, "geometry": { "type": "Point", "coordinates": [ 6.010826, 47.22993 ] } },
{ "type": "Feature", "properties": { "stop_id": "t_cham1", "stop_name": "Chamars", "stop_lat": 47.233738, "stop_lon": 6.0203433, "location_type": 0, "parent_station": "st_chamars", "wheelchair_boarding": 1 }, "geometry": { "type": "Point", "coordinates": [ 6.0203433, 47.233738 ] } },
{ "type": "Feature", "properties": { "stop_id": "t_cano1", "stop_name": "Canot", "stop_lat": 47.23614, "stop_lon": 6.0160275, "location_type": 0, "parent_station": "st_canot", "wheelchair_boarding": 1 }, "geometry": { "type": "Point", "coordinates": [ 6.0160275, 47.23614 ] } },
{ "type": "Feature", "properties": { "stop_id": "t_batt1", "stop_name": "Battant", "stop_lat": 47.23951, "stop_lon": 6.019576, "location_type": 0, "parent_station": "st_battant", "wheelchair_boarding": 1 }, "geometry": { "type": "Point", "coordinates": [ 6.019576, 47.23951 ] } },
{ "type": "Feature", "properties": { "stop_id": "t_revo1", "stop_name": "Révolution", "stop_lat": 47.240513, "stop_lon": 6.0230746, "location_type": 0, "parent_station": "st_revolution", "wheelchair_boarding": 1 }, "geometry": { "type": "Point", "coordinates": [ 6.0230746, 47.240513 ] } },
{ "type": "Feature", "properties": { "stop_id": "t_repu1", "stop_name": "République", "stop_lat": 47.240894, "stop_lon": 6.0271482, "location_type": 0, "parent_station": "st_republique", "wheelchair_boarding": 1 }, "geometry": { "type": "Point", "coordinates": [ 6.0271482, 47.240894 ] } },
{ "type": "Feature", "properties": { "stop_id": "t_pmic1", "stop_name": "Parc Micaud", "stop_lat": 47.24289, "stop_lon": 6.0299096, "location_type": 0, "parent_station": "st_parc_micaud", "wheelchair_boarding": 1 }, "geometry": { "type": "Point", "coordinates": [ 6.0299096, 47.24289 ] } },
{ "type": "Feature", "properties": { "stop_id": "t_farg1", "stop_name": "Fontaine Argent", "stop_lat": 47.245975, "stop_lon": 6.0337963, "location_type": 0, "parent_station": "st_fontaine_argent", "wheelchair_boarding": 1 }, "geometry": { "type": "Point", "coordinates": [ 6.0337963, 47.245975 ] } },
{ "type": "Feature", "properties": { "stop_id": "t_tbern1", "stop_name": "Tristan Bernard", "stop_lat": 47.248196, "stop_lon": 6.0373807, "location_type": 0, "parent_station": "st_tristan_bernard", "wheelchair_boarding": 1 }, "geometry": { "type": "Point", "coordinates": [ 6.0373807, 47.248196 ] } },
{ "type": "Feature", "properties": { "stop_id": "t_brule1", "stop_name": "Brûlefoin", "stop_lat": 47.249886, "stop_lon": 6.042456, "location_type": 0, "parent_station": "st_brulefoin", "wheelchair_boarding": 1 }, "geometry": { "type": "Point", "coordinates": [ 6.042456, 47.249886 ] } },
{ "type": "Feature", "properties": { "stop_id": "t_lvai1", "stop_name": "Les Vaîtes", "stop_lat": 47.25324, "stop_lon": 6.043249, "location_type": 0, "parent_station": "st_les_vaites", "wheelchair_boarding": 1 }, "geometry": { "type": "Point", "coordinates": [ 6.043249, 47.25324 ] } },
{ "type": "Feature", "properties": { "stop_id": "t_schw1", "stop_name": "Schweitzer", "stop_lat": 47.256077, "stop_lon": 6.04481, "location_type": 0, "parent_station": "st_schweitzer", "wheelchair_boarding": 1 }, "geometry": { "type": "Point", "coordinates": [ 6.04481, 47.256077 ] } },
{ "type": "Feature", "properties": { "stop_id": "t_cdp1", "stop_name": "Croix de Palente", "stop_lat": 47.257374, "stop_lon": 6.0422015, "location_type": 0, "parent_station": "st_croix_de_palente", "wheelchair_boarding": 1 }, "geometry": { "type": "Point", "coordinates": [ 6.0422015, 47.257374 ] } },
{ "type": "Feature", "properties": { "stop_id": "t_lila1", "stop_name": "Lilas", "stop_lat": 47.260723, "stop_lon": 6.0418797, "location_type": 0, "parent_station": "st_lilas", "wheelchair_boarding": 1 }, "geometry": { "type": "Point", "coordinates": [ 6.0418797, 47.260723 ] } },
{ "type": "Feature", "properties": { "stop_id": "t_orc1", "stop_name": "Orchamps", "stop_lat": 47.26297, "stop_lon": 6.045393, "location_type": 0, "parent_station": "st_orchamps", "wheelchair_boarding": 1 }, "geometry": { "type": "Point", "coordinates": [ 6.045393, 47.26297 ] } },
{ "type": "Feature", "properties": { "stop_id": "t_fben1", "stop_name": "Fort Benoît", "stop_lat": 47.262066, "stop_lon": 6.050709, "location_type": 0, "parent_station": "st_fort_benoit", "wheelchair_boarding": 1 }, "geometry": { "type": "Point", "coordinates": [ 6.050709, 47.262066 ] } },
{ "type": "Feature", "properties": { "stop_id": "t_marn1", "stop_name": "Chalezeule - Marnières", "stop_lat": 47.26338, "stop_lon": 6.055775, "location_type": 0, "parent_station": "st_chalezeule__marnieres", "wheelchair_boarding": 1 }, "geometry": { "type": "Point", "coordinates": [ 6.055775, 47.26338 ] } },
{ "type": "Feature", "properties": { "stop_id": "t_chal", "stop_name": "Chalezeule - Chalezeule", "stop_lat": 47.261314, "stop_lon": 6.0609517, "location_type": 0, "parent_station": "st_chalezeule__chalezeule", "wheelchair_boarding": 1 }, "geometry": { "type": "Point", "coordinates": [ 6.0609517, 47.261314 ] } },
{ "type": "Feature", "properties": { "stop_id": "t_marn2", "stop_name": "Chalezeule - Marnières", "stop_lat": 47.263397, "stop_lon": 6.0553303, "location_type": 0, "parent_station": "st_chalezeule__marnieres", "wheelchair_boarding": 1 }, "geometry": { "type": "Point", "coordinates": [ 6.0553303, 47.263397 ] } },
{ "type": "Feature", "properties": { "stop_id": "t_fben2", "stop_name": "Fort Benoît", "stop_lat": 47.262093, "stop_lon": 6.0504327, "location_type": 0, "parent_station": "st_fort_benoit", "wheelchair_boarding": 1 }, "geometry": { "type": "Point", "coordinates": [ 6.0504327, 47.262093 ] } },
{ "type": "Feature", "properties": { "stop_id": "t_orc2", "stop_name": "Orchamps", "stop_lat": 47.262924, "stop_lon": 6.04513, "location_type": 0, "parent_station": "st_orchamps", "wheelchair_boarding": 1 }, "geometry": { "type": "Point", "coordinates": [ 6.04513, 47.262924 ] } },
{ "type": "Feature", "properties": { "stop_id": "t_lila2", "stop_name": "Lilas", "stop_lat": 47.26069, "stop_lon": 6.041709, "location_type": 0, "parent_station": "st_lilas", "wheelchair_boarding": 1 }, "geometry": { "type": "Point", "coordinates": [ 6.041709, 47.26069 ] } },
{ "type": "Feature", "properties": { "stop_id": "t_cdp2", "stop_name": "Croix de Palente", "stop_lat": 47.25719, "stop_lon": 6.0424175, "location_type": 0, "parent_station": "st_croix_de_palente", "wheelchair_boarding": 1 }, "geometry": { "type": "Point", "coordinates": [ 6.0424175, 47.25719 ] } },
{ "type": "Feature", "properties": { "stop_id": "t_schw2", "stop_name": "Schweitzer", "stop_lat": 47.25585, "stop_lon": 6.04508, "location_type": 0, "parent_station": "st_schweitzer", "wheelchair_boarding": 1 }, "geometry": { "type": "Point", "coordinates": [ 6.04508, 47.25585 ] } },
{ "type": "Feature", "properties": { "stop_id": "t_lvai2", "stop_name": "Les Vaîtes", "stop_lat": 47.253136, "stop_lon": 6.0429354, "location_type": 0, "parent_station": "st_les_vaites", "wheelchair_boarding": 1 }, "geometry": { "type": "Point", "coordinates": [ 6.0429354, 47.253136 ] } },
{ "type": "Feature", "properties": { "stop_id": "t_brule2", "stop_name": "Brûlefoin", "stop_lat": 47.249786, "stop_lon": 6.0421796, "location_type": 0, "parent_station": "st_brulefoin", "wheelchair_boarding": 1 }, "geometry": { "type": "Point", "coordinates": [ 6.0421796, 47.249786 ] } },
{ "type": "Feature", "properties": { "stop_id": "t_tbern2", "stop_name": "Tristan Bernard", "stop_lat": 47.24816, "stop_lon": 6.0370765, "location_type": 0, "parent_station": "st_tristan_bernard", "wheelchair_boarding": 1 }, "geometry": { "type": "Point", "coordinates": [ 6.0370765, 47.24816 ] } },
{ "type": "Feature", "properties": { "stop_id": "t_farg2", "stop_name": "Fontaine Argent", "stop_lat": 47.24595, "stop_lon": 6.033674, "location_type": 0, "parent_station": "st_fontaine_argent", "wheelchair_boarding": 1 }, "geometry": { "type": "Point", "coordinates": [ 6.033674, 47.24595 ] } },
{ "type": "Feature", "properties": { "stop_id": "t_pmic2", "stop_name": "Parc Micaud", "stop_lat": 47.24295, "stop_lon": 6.029917, "location_type": 0, "parent_station": "st_parc_micaud", "wheelchair_boarding": 1 }, "geometry": { "type": "Point", "coordinates": [ 6.029917, 47.24295 ] } },
{ "type": "Feature", "properties": { "stop_id": "t_repu2", "stop_name": "République", "stop_lat": 47.240948, "stop_lon": 6.0270724, "location_type": 0, "parent_station": "st_republique", "wheelchair_boarding": 1 }, "geometry": { "type": "Point", "coordinates": [ 6.0270724, 47.240948 ] } },
{ "type": "Feature", "properties": { "stop_id": "t_revo2", "stop_name": "Révolution", "stop_lat": 47.24041, "stop_lon": 6.0228295, "location_type": 0, "parent_station": "st_revolution", "wheelchair_boarding": 1 }, "geometry": { "type": "Point", "coordinates": [ 6.0228295, 47.24041 ] } },
{ "type": "Feature", "properties": { "stop_id": "t_batt2", "stop_name": "Battant", "stop_lat": 47.239464, "stop_lon": 6.019442, "location_type": 0, "parent_station": "st_battant", "wheelchair_boarding": 1 }, "geometry": { "type": "Point", "coordinates": [ 6.019442, 47.239464 ] } },
{ "type": "Feature", "properties": { "stop_id": "t_cano2", "stop_name": "Canot", "stop_lat": 47.23596, "stop_lon": 6.0158696, "location_type": 0, "parent_station": "st_canot", "wheelchair_boarding": 1 }, "geometry": { "type": "Point", "coordinates": [ 6.0158696, 47.23596 ] } },
{ "type": "Feature", "properties": { "stop_id": "t_cham2", "stop_name": "Chamars", "stop_lat": 47.233673, "stop_lon": 6.0202494, "location_type": 0, "parent_station": "st_chamars", "wheelchair_boarding": 1 }, "geometry": { "type": "Point", "coordinates": [ 6.0202494, 47.233673 ] } },
{ "type": "Feature", "properties": { "stop_id": "t_poly2", "stop_name": "Polygone", "stop_lat": 47.229855, "stop_lon": 6.0105643, "location_type": 0, "parent_station": "st_polygone", "wheelchair_boarding": 1 }, "geometry": { "type": "Point", "coordinates": [ 6.0105643, 47.229855 ] } },
{ "type": "Feature", "properties": { "stop_id": "t_brula2", "stop_name": "Brulard", "stop_lat": 47.228462, "stop_lon": 6.005575, "location_type": 0, "parent_station": "st_brulard", "wheelchair_boarding": 1 }, "geometry": { "type": "Point", "coordinates": [ 6.005575, 47.228462 ] } },
{ "type": "Feature", "properties": { "stop_id": "t_rose2", "stop_name": "Rosemont", "stop_lat": 47.224987, "stop_lon": 5.994995, "location_type": 0, "parent_station": "st_rosemont", "wheelchair_boarding": 1 }, "geometry": { "type": "Point", "coordinates": [ 5.994995, 47.224987 ] } },
{ "type": "Feature", "properties": { "stop_id": "t_malc2", "stop_name": "Malcombe", "stop_lat": 47.222588, "stop_lon": 5.9824343, "location_type": 0, "parent_station": "st_malcombe", "wheelchair_boarding": 1 }, "geometry": { "type": "Point", "coordinates": [ 5.9824343, 47.222588 ] } },
{ "type": "Feature", "properties": { "stop_id": "t_micro2", "stop_name": "Micropolis", "stop_lat": 47.22066, "stop_lon": 5.9781675, "location_type": 0, "parent_station": "st_micropolis", "wheelchair_boarding": 1 }, "geometry": { "type": "Point", "coordinates": [ 5.9781675, 47.22066 ] } },
{ "type": "Feature", "properties": { "stop_id": "t_allen2", "stop_name": "Allende", "stop_lat": 47.219864, "stop_lon": 5.973468, "location_type": 0, "parent_station": "st_allende", "wheelchair_boarding": 1 }, "geometry": { "type": "Point", "coordinates": [ 5.973468, 47.219864 ] } },
{ "type": "Feature", "properties": { "stop_id": "t_epo2", "stop_name": "Epoisses", "stop_lat": 47.22248, "stop_lon": 5.972474, "location_type": 0, "parent_station": "st_epoisses", "wheelchair_boarding": 1 }, "geometry": { "type": "Point", "coordinates": [ 5.972474, 47.22248 ] } },
{ "type": "Feature", "properties": { "stop_id": "t_idf2", "stop_name": "Ile de France", "stop_lat": 47.222034, "stop_lon": 5.9672446, "location_type": 0, "parent_station": "st_ile_de_france", "wheelchair_boarding": 1 }, "geometry": { "type": "Point", "coordinates": [ 5.9672446, 47.222034 ] } },
{ "type": "Feature", "properties": { "stop_id": "t_chr2", "stop_name": "CHRU Minjoz", "stop_lat": 47.22639, "stop_lon": 5.9636316, "location_type": 0, "parent_station": "st_chru_minjoz", "wheelchair_boarding": 1 }, "geometry": { "type": "Point", "coordinates": [ 5.9636316, 47.22639 ] } },
{ "type": "Feature", "properties": { "stop_id": "t_psan2", "stop_name": "Maison des Familles", "stop_lat": 47.22591, "stop_lon": 5.9599614, "location_type": 0, "parent_station": "st_maison_des_familles", "wheelchair_boarding": 1 }, "geometry": { "type": "Point", "coordinates": [ 5.9599614, 47.22591 ] } },
{ "type": "Feature", "properties": { "stop_id": "t_ufr2", "stop_name": "UFR Santé", "stop_lat": 47.22361, "stop_lon": 5.9558635, "location_type": 0, "parent_station": "st_ufr_sante", "wheelchair_boarding": 1 }, "geometry": { "type": "Point", "coordinates": [ 5.9558635, 47.22361 ] } },
{ "type": "Feature", "properties": { "stop_id": "t_hdc2", "stop_name": "Hauts du Chazal", "stop_lat": 47.22164, "stop_lon": 5.951406, "location_type": 0, "parent_station": "st_hauts_du_chazal", "wheelchair_boarding": 1 }, "geometry": { "type": "Point", "coordinates": [ 5.951406, 47.22164 ] } },
{ "type": "Feature", "properties": { "stop_id": "t_flo1", "stop_name": "Flore", "stop_lat": 47.245533, "stop_lon": 6.028025, "location_type": 0, "parent_station": "st_flore", "wheelchair_boarding": 1 }, "geometry": { "type": "Point", "coordinates": [ 6.028025, 47.245533 ] } },
{ "type": "Feature", "properties": { "stop_id": "t_gvio1", "stop_name": "Gare Viotte", "stop_lat": 47.24635, "stop_lon": 6.021987, "location_type": 0, "parent_station": "st_gare_viotte", "wheelchair_boarding": 1 }, "geometry": { "type": "Point", "coordinates": [ 6.021987, 47.24635 ] } },
{ "type": "Feature", "properties": { "stop_id": "t_gvio2", "stop_name": "Gare Viotte", "stop_lat": 47.246326, "stop_lon": 6.0221725, "location_type": 0, "parent_station": "st_gare_viotte", "wheelchair_boarding": 1 }, "geometry": { "type": "Point", "coordinates": [ 6.0221725, 47.246326 ] } },
{ "type": "Feature", "properties": { "stop_id": "t_flo2", "stop_name": "Flore", "stop_lat": 47.24549, "stop_lon": 6.028106, "location_type": 0, "parent_station": "st_flore", "wheelchair_boarding": 1 }, "geometry": { "type": "Point", "coordinates": [ 6.028106, 47.24549 ] } },
{ "type": "Feature", "properties": { "stop_id": "RIVOTTE", "stop_name": "Rivotte", "stop_lat": 47.23035, "stop_lon": 6.037004, "location_type": 0, "parent_station": "st_rivotte", "wheelchair_boarding": 1 }, "geometry": { "type": "Point", "coordinates": [ 6.037004, 47.23035 ] } },
{ "type": "Feature", "properties": { "stop_id": "CITAR01", "stop_name": "Cité des Arts", "stop_lat": 47.23615, "stop_lon": 6.033246, "location_type": 0, "parent_station": "st_cite_des_arts", "wheelchair_boarding": 0 }, "geometry": { "type": "Point", "coordinates": [ 6.033246, 47.23615 ] } },
{ "type": "Feature", "properties": { "stop_id": "COURBET1", "stop_name": "Courbet", "stop_lat": 47.240883, "stop_lon": 6.025303, "location_type": 0, "parent_station": "st_courbet", "wheelchair_boarding": 0 }, "geometry": { "type": "Point", "coordinates": [ 6.025303, 47.240883 ] } },
{ "type": "Feature", "properties": { "stop_id": "DENROCH1", "stop_name": "Denfert Rochereau", "stop_lat": 47.243217, "stop_lon": 6.026273, "location_type": 0, "parent_station": "st_denfert_rochereau", "wheelchair_boarding": 1 }, "geometry": { "type": "Point", "coordinates": [ 6.026273, 47.243217 ] } },
{ "type": "Feature", "properties": { "stop_id": "FLORE2", "stop_name": "Flore", "stop_lat": 47.246075, "stop_lon": 6.028145, "location_type": 0, "parent_station": "st_flore", "wheelchair_boarding": 0 }, "geometry": { "type": "Point", "coordinates": [ 6.028145, 47.246075 ] } },
{ "type": "Feature", "properties": { "stop_id": "LIBERTE4", "stop_name": "Liberté", "stop_lat": 47.247437, "stop_lon": 6.028415, "location_type": 0, "parent_station": "st_liberte", "wheelchair_boarding": 1 }, "geometry": { "type": "Point", "coordinates": [ 6.028415, 47.247437 ] } },
{ "type": "Feature", "properties": { "stop_id": "MARILOU1", "stop_name": "Marie Louise", "stop_lat": 47.248768, "stop_lon": 6.031517, "location_type": 0, "parent_station": "st_marie_louise", "wheelchair_boarding": 1 }, "geometry": { "type": "Point", "coordinates": [ 6.031517, 47.248768 ] } },
{ "type": "Feature", "properties": { "stop_id": "BAILLE1", "stop_name": "Baille", "stop_lat": 47.251816, "stop_lon": 6.035539, "location_type": 0, "parent_station": "st_baille", "wheelchair_boarding": 0 }, "geometry": { "type": "Point", "coordinates": [ 6.035539, 47.251816 ] } },
{ "type": "Feature", "properties": { "stop_id": "PAPILLO1", "stop_name": "Papillon", "stop_lat": 47.25412, "stop_lon": 6.038609, "location_type": 0, "parent_station": "st_papillon", "wheelchair_boarding": 0 }, "geometry": { "type": "Point", "coordinates": [ 6.038609, 47.25412 ] } },
{ "type": "Feature", "properties": { "stop_id": "BELFORT1", "stop_name": "Belfort", "stop_lat": 47.256645, "stop_lon": 6.042124, "location_type": 0, "parent_station": "st_belfort", "wheelchair_boarding": 0 }, "geometry": { "type": "Point", "coordinates": [ 6.042124, 47.256645 ] } },
{ "type": "Feature", "properties": { "stop_id": "LEBEUF1", "stop_name": "Lebeuf", "stop_lat": 47.258564, "stop_lon": 6.044786, "location_type": 0, "parent_station": "st_lebeuf", "wheelchair_boarding": 0 }, "geometry": { "type": "Point", "coordinates": [ 6.044786, 47.258564 ] } },
{ "type": "Feature", "properties": { "stop_id": "CHARIGN1", "stop_name": "Charigney", "stop_lat": 47.261307, "stop_lon": 6.048596, "location_type": 0, "parent_station": "st_charigney", "wheelchair_boarding": 0 }, "geometry": { "type": "Point", "coordinates": [ 6.048596, 47.261307 ] } },
{ "type": "Feature", "properties": { "stop_id": "JEANNET2", "stop_name": "Jeannettes", "stop_lat": 47.262196, "stop_lon": 6.047158, "location_type": 0, "parent_station": "st_jeannettes", "wheelchair_boarding": 0 }, "geometry": { "type": "Point", "coordinates": [ 6.047158, 47.262196 ] } },
{ "type": "Feature", "properties": { "stop_id": "ORCHAMP9", "stop_name": "Orchamps", "stop_lat": 47.262966, "stop_lon": 6.044861, "location_type": 0, "parent_station": "st_orchamps", "wheelchair_boarding": 0 }, "geometry": { "type": "Point", "coordinates": [ 6.044861, 47.262966 ] } },
{ "type": "Feature", "properties": { "stop_id": "COLPROU2", "stop_name": "Collège Proudhon", "stop_lat": 47.2671, "stop_lon": 6.04713, "location_type": 0, "parent_station": "st_college_proudhon", "wheelchair_boarding": 0 }, "geometry": { "type": "Point", "coordinates": [ 6.04713, 47.2671 ] } },
{ "type": "Feature", "properties": { "stop_id": "CHEMPAL2", "stop_name": "Chemin de Palente", "stop_lat": 47.268967, "stop_lon": 6.04736, "location_type": 0, "parent_station": "st_chemin_de_palente", "wheelchair_boarding": 0 }, "geometry": { "type": "Point", "coordinates": [ 6.04736, 47.268967 ] } },
{ "type": "Feature", "properties": { "stop_id": "CULPRES2", "stop_name": "Cul des Prés", "stop_lat": 47.269806, "stop_lon": 6.042978, "location_type": 0, "parent_station": "st_cul_des_pres", "wheelchair_boarding": 0 }, "geometry": { "type": "Point", "coordinates": [ 6.042978, 47.269806 ] } },
{ "type": "Feature", "properties": { "stop_id": "CHEPLAN2", "stop_name": "Chemin des Planches", "stop_lat": 47.267063, "stop_lon": 6.037428, "location_type": 0, "parent_station": "st_chemin_des_planches", "wheelchair_boarding": 0 }, "geometry": { "type": "Point", "coordinates": [ 6.037428, 47.267063 ] } },
{ "type": "Feature", "properties": { "stop_id": "VIEILLE2", "stop_name": "Vieilley", "stop_lat": 47.265015, "stop_lon": 6.033507, "location_type": 0, "parent_station": "st_vieilley", "wheelchair_boarding": 0 }, "geometry": { "type": "Point", "coordinates": [ 6.033507, 47.265015 ] } },
{ "type": "Feature", "properties": { "stop_id": "ECOLE4V2", "stop_name": "Ecole des 4 vents", "stop_lat": 47.26349, "stop_lon": 6.032386, "location_type": 0, "parent_station": "st_ecole_des_4_vents", "wheelchair_boarding": 0 }, "geometry": { "type": "Point", "coordinates": [ 6.032386, 47.26349 ] } },
{ "type": "Feature", "properties": { "stop_id": "COMSARA1", "stop_name": "Combe Saragosse", "stop_lat": 47.261604, "stop_lon": 6.031678, "location_type": 0, "parent_station": "st_combe_saragosse", "wheelchair_boarding": 0 }, "geometry": { "type": "Point", "coordinates": [ 6.031678, 47.261604 ] } },
{ "type": "Feature", "properties": { "stop_id": "VIEILLE1", "stop_name": "Vieilley", "stop_lat": 47.26549, "stop_lon": 6.034121, "location_type": 0, "parent_station": "st_vieilley", "wheelchair_boarding": 0 }, "geometry": { "type": "Point", "coordinates": [ 6.034121, 47.26549 ] } },
{ "type": "Feature", "properties": { "stop_id": "CHEPLAN1", "stop_name": "Chemin des Planches", "stop_lat": 47.26713, "stop_lon": 6.037749, "location_type": 0, "parent_station": "st_chemin_des_planches", "wheelchair_boarding": 0 }, "geometry": { "type": "Point", "coordinates": [ 6.037749, 47.26713 ] } },
{ "type": "Feature", "properties": { "stop_id": "CULPRES1", "stop_name": "Cul des Prés", "stop_lat": 47.26978, "stop_lon": 6.043004, "location_type": 0, "parent_station": "st_cul_des_pres", "wheelchair_boarding": 0 }, "geometry": { "type": "Point", "coordinates": [ 6.043004, 47.26978 ] } },
{ "type": "Feature", "properties": { "stop_id": "CHEMPAL1", "stop_name": "Chemin de Palente", "stop_lat": 47.268814, "stop_lon": 6.047417, "location_type": 0, "parent_station": "st_chemin_de_palente", "wheelchair_boarding": 0 }, "geometry": { "type": "Point", "coordinates": [ 6.047417, 47.268814 ] } },
{ "type": "Feature", "properties": { "stop_id": "COLPROU1", "stop_name": "Collège Proudhon", "stop_lat": 47.26656, "stop_lon": 6.046761, "location_type": 0, "parent_station": "st_college_proudhon", "wheelchair_boarding": 0 }, "geometry": { "type": "Point", "coordinates": [ 6.046761, 47.26656 ] } },
{ "type": "Feature", "properties": { "stop_id": "COURTIL2", "stop_name": "Courtils", "stop_lat": 47.265015, "stop_lon": 6.046069, "location_type": 0, "parent_station": "st_courtils", "wheelchair_boarding": 0 }, "geometry": { "type": "Point", "coordinates": [ 6.046069, 47.265015 ] } },
{ "type": "Feature", "properties": { "stop_id": "CRAS", "stop_name": "Orchamps", "stop_lat": 47.26292, "stop_lon": 6.044633, "location_type": 0, "parent_station": "st_orchamps", "wheelchair_boarding": 1 }, "geometry": { "type": "Point", "coordinates": [ 6.044633, 47.26292 ] } },
{ "type": "Feature", "properties": { "stop_id": "JEANNET3", "stop_name": "Jeannettes", "stop_lat": 47.262142, "stop_lon": 6.046919, "location_type": 0, "parent_station": "st_jeannettes", "wheelchair_boarding": 0 }, "geometry": { "type": "Point", "coordinates": [ 6.046919, 47.262142 ] } },
{ "type": "Feature", "properties": { "stop_id": "CHARIGN2", "stop_name": "Charigney", "stop_lat": 47.26101, "stop_lon": 6.048107, "location_type": 0, "parent_station": "st_charigney", "wheelchair_boarding": 0 }, "geometry": { "type": "Point", "coordinates": [ 6.048107, 47.26101 ] } },
{ "type": "Feature", "properties": { "stop_id": "LEBEUF2", "stop_name": "Lebeuf", "stop_lat": 47.259277, "stop_lon": 6.045693, "location_type": 0, "parent_station": "st_lebeuf", "wheelchair_boarding": 0 }, "geometry": { "type": "Point", "coordinates": [ 6.045693, 47.259277 ] } },
{ "type": "Feature", "properties": { "stop_id": "BELFORT2", "stop_name": "Belfort", "stop_lat": 47.25672, "stop_lon": 6.04214, "location_type": 0, "parent_station": "st_belfort", "wheelchair_boarding": 0 }, "geometry": { "type": "Point", "coordinates": [ 6.04214, 47.25672 ] } },
{ "type": "Feature", "properties": { "stop_id": "PAPILLO2", "stop_name": "Papillon", "stop_lat": 47.253735, "stop_lon": 6.038053, "location_type": 0, "parent_station": "st_papillon", "wheelchair_boarding": 0 }, "geometry": { "type": "Point", "coordinates": [ 6.038053, 47.253735 ] } },
{ "type": "Feature", "properties": { "stop_id": "BAILLE2", "stop_name": "Baille", "stop_lat": 47.25124, "stop_lon": 6.034726, "location_type": 0, "parent_station": "st_baille", "wheelchair_boarding": 0 }, "geometry": { "type": "Point", "coordinates": [ 6.034726, 47.25124 ] } },
{ "type": "Feature", "properties": { "stop_id": "MARILOU2", "stop_name": "Marie Louise", "stop_lat": 47.24918, "stop_lon": 6.031481, "location_type": 0, "parent_station": "st_marie_louise", "wheelchair_boarding": 0 }, "geometry": { "type": "Point", "coordinates": [ 6.031481, 47.24918 ] } },
{ "type": "Feature", "properties": { "stop_id": "LIBERTE3", "stop_name": "Liberté", "stop_lat": 47.247612, "stop_lon": 6.028507, "location_type": 0, "parent_station": "st_liberte", "wheelchair_boarding": 1 }, "geometry": { "type": "Point", "coordinates": [ 6.028507, 47.247612 ] } },
{ "type": "Feature", "properties": { "stop_id": "FLORE4", "stop_name": "Flore", "stop_lat": 47.24562, "stop_lon": 6.028358, "location_type": 0, "parent_station": "st_flore", "wheelchair_boarding": 0 }, "geometry": { "type": "Point", "coordinates": [ 6.028358, 47.24562 ] } },
{ "type": "Feature", "properties": { "stop_id": "DENROCH2", "stop_name": "Denfert Rochereau", "stop_lat": 47.243076, "stop_lon": 6.026127, "location_type": 0, "parent_station": "st_denfert_rochereau", "wheelchair_boarding": 1 }, "geometry": { "type": "Point", "coordinates": [ 6.026127, 47.243076 ] } },
{ "type": "Feature", "properties": { "stop_id": "REPUBL2", "stop_name": "République", "stop_lat": 47.24107, "stop_lon": 6.026592, "location_type": 0, "parent_station": "st_republique", "wheelchair_boarding": 0 }, "geometry": { "type": "Point", "coordinates": [ 6.026592, 47.24107 ] } },
{ "type": "Feature", "properties": { "stop_id": "CITAR02", "stop_name": "Cité des Arts", "stop_lat": 47.236073, "stop_lon": 6.033217, "location_type": 0, "parent_station": "st_cite_des_arts", "wheelchair_boarding": 0 }, "geometry": { "type": "Point", "coordinates": [ 6.033217, 47.236073 ] } },
{ "type": "Feature", "properties": { "stop_id": "PRESVAU1", "stop_name": "Prés de Vaux", "stop_lat": 47.229652, "stop_lon": 6.053614, "location_type": 0, "parent_station": "st_pres_de_vaux", "wheelchair_boarding": 0 }, "geometry": { "type": "Point", "coordinates": [ 6.053614, 47.229652 ] } },
{ "type": "Feature", "properties": { "stop_id": "TEMIS4", "stop_name": "Temis", "stop_lat": 47.25319, "stop_lon": 5.997265, "location_type": 0, "parent_station": "st_temis", "wheelchair_boarding": 0 }, "geometry": { "type": "Point", "coordinates": [ 5.997265, 47.25319 ] } },
{ "type": "Feature", "properties": { "stop_id": "BOUCONS2", "stop_name": "Montboucons", "stop_lat": 47.256294, "stop_lon": 5.994769, "location_type": 0, "parent_station": "st_montboucons", "wheelchair_boarding": 0 }, "geometry": { "type": "Point", "coordinates": [ 5.994769, 47.256294 ] } },
{ "type": "Feature", "properties": { "stop_id": "BATICFA3", "stop_name": "Bâtiment CFA", "stop_lat": 47.257973, "stop_lon": 5.999641, "location_type": 0, "parent_station": "st_batiment_cfa", "wheelchair_boarding": 0 }, "geometry": { "type": "Point", "coordinates": [ 5.999641, 47.257973 ] } },
{ "type": "Feature", "properties": { "stop_id": "SAVARY4", "stop_name": "Savary", "stop_lat": 47.256603, "stop_lon": 6.004495, "location_type": 0, "parent_station": "st_savary", "wheelchair_boarding": 0 }, "geometry": { "type": "Point", "coordinates": [ 6.004495, 47.256603 ] } },
{ "type": "Feature", "properties": { "stop_id": "CHEFOUN1", "stop_name": "Chemin des Founottes", "stop_lat": 47.258205, "stop_lon": 6.006947, "location_type": 0, "parent_station": "st_chemin_des_founottes", "wheelchair_boarding": 0 }, "geometry": { "type": "Point", "coordinates": [ 6.006947, 47.258205 ] } },
{ "type": "Feature", "properties": { "stop_id": "COLCAM1", "stop_name": "Collège Camus", "stop_lat": 47.258923, "stop_lon": 6.010331, "location_type": 0, "parent_station": "st_college_camus", "wheelchair_boarding": 1 }, "geometry": { "type": "Point", "coordinates": [ 6.010331, 47.258923 ] } },
{ "type": "Feature", "properties": { "stop_id": "RECLUS1", "stop_name": "Reclus", "stop_lat": 47.260933, "stop_lon": 6.014727, "location_type": 0, "parent_station": "st_reclus", "wheelchair_boarding": 1 }, "geometry": { "type": "Point", "coordinates": [ 6.014727, 47.260933 ] } },
{ "type": "Feature", "properties": { "stop_id": "PSB1", "stop_name": "PSB", "stop_lat": 47.25958, "stop_lon": 6.015671, "location_type": 0, "parent_station": "st_psb", "wheelchair_boarding": 0 }, "geometry": { "type": "Point", "coordinates": [ 6.015671, 47.25958 ] } },
{ "type": "Feature", "properties": { "stop_id": "CIMCLA1", "stop_name": "Cimetière St Claude", "stop_lat": 47.26145, "stop_lon": 6.019935, "location_type": 0, "parent_station": "st_cimetiere_st_claude", "wheelchair_boarding": 0 }, "geometry": { "type": "Point", "coordinates": [ 6.019935, 47.26145 ] } },
{ "type": "Feature", "properties": { "stop_id": "FLSAUT01", "stop_name": "Feuilles d'Automne", "stop_lat": 47.263287, "stop_lon": 6.022851, "location_type": 0, "parent_station": "st_feuilles_dautomne", "wheelchair_boarding": 0 }, "geometry": { "type": "Point", "coordinates": [ 6.022851, 47.263287 ] } },
{ "type": "Feature", "properties": { "stop_id": "BQTSO01", "stop_name": "Bouquet de Soleils", "stop_lat": 47.26603, "stop_lon": 6.023893, "location_type": 0, "parent_station": "st_bouquet_de_soleils", "wheelchair_boarding": 0 }, "geometry": { "type": "Point", "coordinates": [ 6.023893, 47.26603 ] } },
{ "type": "Feature", "properties": { "stop_id": "VALJOUR2", "stop_name": "Vallon du Jour", "stop_lat": 47.266785, "stop_lon": 6.027603, "location_type": 0, "parent_station": "st_vallon_du_jour", "wheelchair_boarding": 0 }, "geometry": { "type": "Point", "coordinates": [ 6.027603, 47.266785 ] } },
{ "type": "Feature", "properties": { "stop_id": "CHESELL2", "stop_name": "Chemin de la Selle", "stop_lat": 47.269455, "stop_lon": 6.028132, "location_type": 0, "parent_station": "st_chemin_de_la_selle", "wheelchair_boarding": 0 }, "geometry": { "type": "Point", "coordinates": [ 6.028132, 47.269455 ] } },
{ "type": "Feature", "properties": { "stop_id": "MONTARMO", "stop_name": "Montarmots", "stop_lat": 47.272675, "stop_lon": 6.030375, "location_type": 0, "parent_station": "st_montarmots", "wheelchair_boarding": 0 }, "geometry": { "type": "Point", "coordinates": [ 6.030375, 47.272675 ] } },
{ "type": "Feature", "properties": { "stop_id": "CHESELL1", "stop_name": "Chemin de la Selle", "stop_lat": 47.26913, "stop_lon": 6.028084, "location_type": 0, "parent_station": "st_chemin_de_la_selle", "wheelchair_boarding": 0 }, "geometry": { "type": "Point", "coordinates": [ 6.028084, 47.26913 ] } },
{ "type": "Feature", "properties": { "stop_id": "VALJOUR1", "stop_name": "Vallon du Jour", "stop_lat": 47.266052, "stop_lon": 6.027311, "location_type": 0, "parent_station": "st_vallon_du_jour", "wheelchair_boarding": 0 }, "geometry": { "type": "Point", "coordinates": [ 6.027311, 47.266052 ] } },
{ "type": "Feature", "properties": { "stop_id": "CARRIER1", "stop_name": "Carrière", "stop_lat": 47.263653, "stop_lon": 6.027452, "location_type": 0, "parent_station": "st_carriere", "wheelchair_boarding": 0 }, "geometry": { "type": "Point", "coordinates": [ 6.027452, 47.263653 ] } },
{ "type": "Feature", "properties": { "stop_id": "ESPERAN1", "stop_name": "Espérance", "stop_lat": 47.261852, "stop_lon": 6.027439, "location_type": 0, "parent_station": "st_esperance", "wheelchair_boarding": 0 }, "geometry": { "type": "Point", "coordinates": [ 6.027439, 47.261852 ] } },
{ "type": "Feature", "properties": { "stop_id": "SEILER1", "stop_name": "Seiler", "stop_lat": 47.258343, "stop_lon": 6.022867, "location_type": 0, "parent_station": "st_seiler", "wheelchair_boarding": 0 }, "geometry": { "type": "Point", "coordinates": [ 6.022867, 47.258343 ] } },
{ "type": "Feature", "properties": { "stop_id": "TREY1", "stop_name": "Trey", "stop_lat": 47.256554, "stop_lon": 6.022026, "location_type": 0, "parent_station": "st_trey", "wheelchair_boarding": 0 }, "geometry": { "type": "Point", "coordinates": [ 6.022026, 47.256554 ] } },
{ "type": "Feature", "properties": { "stop_id": "FCLERC1", "stop_name": "Francis Clerc", "stop_lat": 47.255135, "stop_lon": 6.023194, "location_type": 0, "parent_station": "st_francis_clerc", "wheelchair_boarding": 0 }, "geometry": { "type": "Point", "coordinates": [ 6.023194, 47.255135 ] } },
{ "type": "Feature", "properties": { "stop_id": "HBAIGUE1", "stop_name": "Henri Baigue", "stop_lat": 47.253494, "stop_lon": 6.025517, "location_type": 0, "parent_station": "st_henri_baigue", "wheelchair_boarding": 0 }, "geometry": { "type": "Point", "coordinates": [ 6.025517, 47.253494 ] } },
{ "type": "Feature", "properties": { "stop_id": "CHASNOT1", "stop_name": "Chasnot", "stop_lat": 47.252148, "stop_lon": 6.026228, "location_type": 0, "parent_station": "st_chasnot", "wheelchair_boarding": 0 }, "geometry": { "type": "Point", "coordinates": [ 6.026228, 47.252148 ] } },
{ "type": "Feature", "properties": { "stop_id": "NBRUAND2", "stop_name": "Nicolas Bruand", "stop_lat": 47.25145, "stop_lon": 6.025613, "location_type": 0, "parent_station": "st_nicolas_bruand", "wheelchair_boarding": 0 }, "geometry": { "type": "Point", "coordinates": [ 6.025613, 47.25145 ] } },
{ "type": "Feature", "properties": { "stop_id": "PONSNCF1", "stop_name": "Pont SNCF", "stop_lat": 47.25023, "stop_lon": 6.025522, "location_type": 0, "parent_station": "st_pont_sncf", "wheelchair_boarding": 0 }, "geometry": { "type": "Point", "coordinates": [ 6.025522, 47.25023 ] } },
{ "type": "Feature", "properties": { "stop_id": "CHANOIS1", "stop_name": "Chanois", "stop_lat": 47.2487, "stop_lon": 6.027008, "location_type": 0, "parent_station": "st_chanois", "wheelchair_boarding": 0 }, "geometry": { "type": "Point", "coordinates": [ 6.027008, 47.2487 ] } },
{ "type": "Feature", "properties": { "stop_id": "ROTONDE1", "stop_name": "Rotonde", "stop_lat": 47.247818, "stop_lon": 6.027254, "location_type": 0, "parent_station": "st_rotonde", "wheelchair_boarding": 0 }, "geometry": { "type": "Point", "coordinates": [ 6.027254, 47.247818 ] } },
{ "type": "Feature", "properties": { "stop_id": "PORJOIN1", "stop_name": "Port Joint", "stop_lat": 47.233818, "stop_lon": 6.037148, "location_type": 0, "parent_station": "st_port_joint", "wheelchair_boarding": 1 }, "geometry": { "type": "Point", "coordinates": [ 6.037148, 47.233818 ] } },
{ "type": "Feature", "properties": { "stop_id": "CHARDON1", "stop_name": "Chardonnet", "stop_lat": 47.23055, "stop_lon": 6.040222, "location_type": 0, "parent_station": "st_chardonnet", "wheelchair_boarding": 0 }, "geometry": { "type": "Point", "coordinates": [ 6.040222, 47.23055 ] } },
{ "type": "Feature", "properties": { "stop_id": "PLGUYON1", "stop_name": "Place Guyon", "stop_lat": 47.22892, "stop_lon": 6.042444, "location_type": 0, "parent_station": "st_place_guyon", "wheelchair_boarding": 0 }, "geometry": { "type": "Point", "coordinates": [ 6.042444, 47.22892 ] } },
{ "type": "Feature", "properties": { "stop_id": "GACOGNE1", "stop_name": "Cité des Gacognes", "stop_lat": 47.22825, "stop_lon": 6.043898, "location_type": 0, "parent_station": "st_cite_des_gacognes", "wheelchair_boarding": 0 }, "geometry": { "type": "Point", "coordinates": [ 6.043898, 47.22825 ] } },
{ "type": "Feature", "properties": { "stop_id": "CHARMAR1", "stop_name": "Charmarin", "stop_lat": 47.228115, "stop_lon": 6.049769, "location_type": 0, "parent_station": "st_charmarin", "wheelchair_boarding": 0 }, "geometry": { "type": "Point", "coordinates": [ 6.049769, 47.228115 ] } },
{ "type": "Feature", "properties": { "stop_id": "CHARMAR2", "stop_name": "Charmarin", "stop_lat": 47.228275, "stop_lon": 6.050047, "location_type": 0, "parent_station": "st_charmarin", "wheelchair_boarding": 0 }, "geometry": { "type": "Point", "coordinates": [ 6.050047, 47.228275 ] } },
{ "type": "Feature", "properties": { "stop_id": "GACOGNE2", "stop_name": "Cité des Gacognes", "stop_lat": 47.228252, "stop_lon": 6.043988, "location_type": 0, "parent_station": "st_cite_des_gacognes", "wheelchair_boarding": 0 }, "geometry": { "type": "Point", "coordinates": [ 6.043988, 47.228252 ] } },
{ "type": "Feature", "properties": { "stop_id": "PLGUYON2", "stop_name": "Place Guyon", "stop_lat": 47.229008, "stop_lon": 6.042345, "location_type": 0, "parent_station": "st_place_guyon", "wheelchair_boarding": 0 }, "geometry": { "type": "Point", "coordinates": [ 6.042345, 47.229008 ] } },
{ "type": "Feature", "properties": { "stop_id": "CHARDON2", "stop_name": "Chardonnet", "stop_lat": 47.231052, "stop_lon": 6.039756, "location_type": 0, "parent_station": "st_chardonnet", "wheelchair_boarding": 0 }, "geometry": { "type": "Point", "coordinates": [ 6.039756, 47.231052 ] } },
{ "type": "Feature", "properties": { "stop_id": "PORJOIN2", "stop_name": "Port Joint", "stop_lat": 47.23413, "stop_lon": 6.037011, "location_type": 0, "parent_station": "st_port_joint", "wheelchair_boarding": 0 }, "geometry": { "type": "Point", "coordinates": [ 6.037011, 47.23413 ] } },
{ "type": "Feature", "properties": { "stop_id": "CHANOIS2", "stop_name": "Chanois", "stop_lat": 47.2492, "stop_lon": 6.026901, "location_type": 0, "parent_station": "st_chanois", "wheelchair_boarding": 0 }, "geometry": { "type": "Point", "coordinates": [ 6.026901, 47.2492 ] } },
{ "type": "Feature", "properties": { "stop_id": "BELVEDE1", "stop_name": "Belvédère", "stop_lat": 47.250763, "stop_lon": 6.026815, "location_type": 0, "parent_station": "st_belvedere", "wheelchair_boarding": 0 }, "geometry": { "type": "Point", "coordinates": [ 6.026815, 47.250763 ] } },
{ "type": "Feature", "properties": { "stop_id": "CHASNOT2", "stop_name": "Chasnot", "stop_lat": 47.25194, "stop_lon": 6.026963, "location_type": 0, "parent_station": "st_chasnot", "wheelchair_boarding": 0 }, "geometry": { "type": "Point", "coordinates": [ 6.026963, 47.25194 ] } },
{ "type": "Feature", "properties": { "stop_id": "HBAIGUE2", "stop_name": "Henri Baigue", "stop_lat": 47.253513, "stop_lon": 6.025601, "location_type": 0, "parent_station": "st_henri_baigue", "wheelchair_boarding": 0 }, "geometry": { "type": "Point", "coordinates": [ 6.025601, 47.253513 ] } },
{ "type": "Feature", "properties": { "stop_id": "FCLERC3", "stop_name": "Francis Clerc", "stop_lat": 47.25536, "stop_lon": 6.022604, "location_type": 0, "parent_station": "st_francis_clerc", "wheelchair_boarding": 0 }, "geometry": { "type": "Point", "coordinates": [ 6.022604, 47.25536 ] } },
{ "type": "Feature", "properties": { "stop_id": "TREY2", "stop_name": "Trey", "stop_lat": 47.256638, "stop_lon": 6.022146, "location_type": 0, "parent_station": "st_trey", "wheelchair_boarding": 0 }, "geometry": { "type": "Point", "coordinates": [ 6.022146, 47.256638 ] } },
{ "type": "Feature", "properties": { "stop_id": "SEILER2", "stop_name": "Seiler", "stop_lat": 47.25833, "stop_lon": 6.022922, "location_type": 0, "parent_station": "st_seiler", "wheelchair_boarding": 0 }, "geometry": { "type": "Point", "coordinates": [ 6.022922, 47.25833 ] } },
{ "type": "Feature", "properties": { "stop_id": "ESPERAN2", "stop_name": "Espérance", "stop_lat": 47.26145, "stop_lon": 6.027528, "location_type": 0, "parent_station": "st_esperance", "wheelchair_boarding": 0 }, "geometry": { "type": "Point", "coordinates": [ 6.027528, 47.26145 ] } },
{ "type": "Feature", "properties": { "stop_id": "CARRIER2", "stop_name": "Carrière", "stop_lat": 47.263958, "stop_lon": 6.027482, "location_type": 0, "parent_station": "st_carriere", "wheelchair_boarding": 0 }, "geometry": { "type": "Point", "coordinates": [ 6.027482, 47.263958 ] } },
{ "type": "Feature", "properties": { "stop_id": "BQTSO02", "stop_name": "Bouquet de Soleils", "stop_lat": 47.26583, "stop_lon": 6.023334, "location_type": 0, "parent_station": "st_bouquet_de_soleils", "wheelchair_boarding": 0 }, "geometry": { "type": "Point", "coordinates": [ 6.023334, 47.26583 ] } },
{ "type": "Feature", "properties": { "stop_id": "FLSAUT02", "stop_name": "Feuilles d'Automne", "stop_lat": 47.263992, "stop_lon": 6.022766, "location_type": 0, "parent_station": "st_feuilles_dautomne", "wheelchair_boarding": 0 }, "geometry": { "type": "Point", "coordinates": [ 6.022766, 47.263992 ] } },
{ "type": "Feature", "properties": { "stop_id": "CIMCLA2", "stop_name": "Cimetière St Claude", "stop_lat": 47.261353, "stop_lon": 6.019765, "location_type": 0, "parent_station": "st_cimetiere_st_claude", "wheelchair_boarding": 0 }, "geometry": { "type": "Point", "coordinates": [ 6.019765, 47.261353 ] } },
{ "type": "Feature", "properties": { "stop_id": "PSB3", "stop_name": "PSB", "stop_lat": 47.259678, "stop_lon": 6.015706, "location_type": 0, "parent_station": "st_psb", "wheelchair_boarding": 0 }, "geometry": { "type": "Point", "coordinates": [ 6.015706, 47.259678 ] } },
{ "type": "Feature", "properties": { "stop_id": "RECLUS2", "stop_name": "Reclus", "stop_lat": 47.26069, "stop_lon": 6.014927, "location_type": 0, "parent_station": "st_reclus", "wheelchair_boarding": 1 }, "geometry": { "type": "Point", "coordinates": [ 6.014927, 47.26069 ] } },
{ "type": "Feature", "properties": { "stop_id": "COLCAM2", "stop_name": "Collège Camus", "stop_lat": 47.258938, "stop_lon": 6.010316, "location_type": 0, "parent_station": "st_college_camus", "wheelchair_boarding": 1 }, "geometry": { "type": "Point", "coordinates": [ 6.010316, 47.258938 ] } },
{ "type": "Feature", "properties": { "stop_id": "CHEFOUN2", "stop_name": "Chemin des Founottes", "stop_lat": 47.257923, "stop_lon": 6.006475, "location_type": 0, "parent_station": "st_chemin_des_founottes", "wheelchair_boarding": 0 }, "geometry": { "type": "Point", "coordinates": [ 6.006475, 47.257923 ] } },
{ "type": "Feature", "properties": { "stop_id": "SAVARY3", "stop_name": "Savary", "stop_lat": 47.256382, "stop_lon": 6.004055, "location_type": 0, "parent_station": "st_savary", "wheelchair_boarding": 0 }, "geometry": { "type": "Point", "coordinates": [ 6.004055, 47.256382 ] } },
{ "type": "Feature", "properties": { "stop_id": "BATICFA4", "stop_name": "Bâtiment CFA", "stop_lat": 47.258015, "stop_lon": 5.9995995, "location_type": 0, "parent_station": "st_batiment_cfa", "wheelchair_boarding": 0 }, "geometry": { "type": "Point", "coordinates": [ 5.9995995, 47.258015 ] } },
{ "type": "Feature", "properties": { "stop_id": "BOUCONS1", "stop_name": "Montboucons", "stop_lat": 47.256145, "stop_lon": 5.994509, "location_type": 0, "parent_station": "st_montboucons", "wheelchair_boarding": 0 }, "geometry": { "type": "Point", "coordinates": [ 5.994509, 47.256145 ] } },
{ "type": "Feature", "properties": { "stop_id": "TEMIS1", "stop_name": "Temis", "stop_lat": 47.2533, "stop_lon": 5.997284, "location_type": 0, "parent_station": "st_temis", "wheelchair_boarding": 0 }, "geometry": { "type": "Point", "coordinates": [ 5.997284, 47.2533 ] } },
{ "type": "Feature", "properties": { "stop_id": "CHAMCITA", "stop_name": "Chamars", "stop_lat": 47.23371, "stop_lon": 6.01982, "location_type": 0, "parent_station": "st_chamars", "wheelchair_boarding": 1 }, "geometry": { "type": "Point", "coordinates": [ 6.01982, 47.23371 ] } },
{ "type": "Feature", "properties": { "stop_id": "VHUGODEV", "stop_name": "Victor Hugo", "stop_lat": 47.23431, "stop_lon": 6.029981, "location_type": 0, "parent_station": "st_victor_hugo", "wheelchair_boarding": 0 }, "geometry": { "type": "Point", "coordinates": [ 6.029981, 47.23431 ] } },
{ "type": "Feature", "properties": { "stop_id": "CITADELL", "stop_name": "Citadelle", "stop_lat": 47.232155, "stop_lon": 6.031392, "location_type": 0, "parent_station": "st_citadelle", "wheelchair_boarding": 1 }, "geometry": { "type": "Point", "coordinates": [ 6.031392, 47.232155 ] } },
{ "type": "Feature", "properties": { "stop_id": "GAREVIO2", "stop_name": "Gare Viotte", "stop_lat": 47.246204, "stop_lon": 6.021949, "location_type": 0, "parent_station": "st_gare_viotte", "wheelchair_boarding": 1 }, "geometry": { "type": "Point", "coordinates": [ 6.021949, 47.246204 ] } },
{ "type": "Feature", "properties": { "stop_id": "ISENBAR1", "stop_name": "Isenbart", "stop_lat": 47.242905, "stop_lon": 6.025027, "location_type": 0, "parent_station": "st_isenbart", "wheelchair_boarding": 1 }, "geometry": { "type": "Point", "coordinates": [ 6.025027, 47.242905 ] } },
{ "type": "Feature", "properties": { "stop_id": "STALAGR2", "stop_name": "Stade Léo Lagrange", "stop_lat": 47.244167, "stop_lon": 6.0047855, "location_type": 0, "parent_station": "st_stade_leo_lagrange", "wheelchair_boarding": 1 }, "geometry": { "type": "Point", "coordinates": [ 6.0047855, 47.244167 ] } },
{ "type": "Feature", "properties": { "stop_id": "PALSPOR2", "stop_name": "Palais des Sports", "stop_lat": 47.24603, "stop_lon": 6.00058, "location_type": 0, "parent_station": "st_palais_des_sports", "wheelchair_boarding": 1 }, "geometry": { "type": "Point", "coordinates": [ 6.00058, 47.24603 ] } },
{ "type": "Feature", "properties": { "stop_id": "OBSAFPA3", "stop_name": "AFPA", "stop_lat": 47.24683, "stop_lon": 5.99625, "location_type": 0, "parent_station": "st_afpa", "wheelchair_boarding": 1 }, "geometry": { "type": "Point", "coordinates": [ 5.99625, 47.24683 ] } },
{ "type": "Feature", "properties": { "stop_id": "IUT2", "stop_name": "IUT", "stop_lat": 47.24731, "stop_lon": 5.99277, "location_type": 0, "parent_station": "st_iut", "wheelchair_boarding": 1 }, "geometry": { "type": "Point", "coordinates": [ 5.99277, 47.24731 ] } },
{ "type": "Feature", "properties": { "stop_id": "CROUUNI2", "stop_name": "Crous Université", "stop_lat": 47.24853, "stop_lon": 5.98644, "location_type": 0, "parent_station": "st_crous_universite", "wheelchair_boarding": 0 }, "geometry": { "type": "Point", "coordinates": [ 5.98644, 47.24853 ] } },
{ "type": "Feature", "properties": { "stop_id": "ARAGO1", "stop_name": "Campus Arago", "stop_lat": 47.250774, "stop_lon": 5.9860315, "location_type": 0, "parent_station": "st_campus_arago", "wheelchair_boarding": 1 }, "geometry": { "type": "Point", "coordinates": [ 5.9860315, 47.250774 ] } },
{ "type": "Feature", "properties": { "stop_id": "USPORTS1", "stop_name": "U-Sports", "stop_lat": 47.25215, "stop_lon": 5.99036, "location_type": 0, "parent_station": "st_usports", "wheelchair_boarding": 1 }, "geometry": { "type": "Point", "coordinates": [ 5.99036, 47.25215 ] } },
{ "type": "Feature", "properties": { "stop_id": "CROUUNI1", "stop_name": "Crous Université", "stop_lat": 47.24838, "stop_lon": 5.98683, "location_type": 0, "parent_station": "st_crous_universite", "wheelchair_boarding": 0 }, "geometry": { "type": "Point", "coordinates": [ 5.98683, 47.24838 ] } },
{ "type": "Feature", "properties": { "stop_id": "USPORTS2", "stop_name": "U-Sports", "stop_lat": 47.25226, "stop_lon": 5.99024, "location_type": 0, "parent_station": "st_usports", "wheelchair_boarding": 1 }, "geometry": { "type": "Point", "coordinates": [ 5.99024, 47.25226 ] } },
{ "type": "Feature", "properties": { "stop_id": "ARAGO2", "stop_name": "Campus Arago", "stop_lat": 47.250546, "stop_lon": 5.9856706, "location_type": 0, "parent_station": "st_campus_arago", "wheelchair_boarding": 1 }, "geometry": { "type": "Point", "coordinates": [ 5.9856706, 47.250546 ] } },
{ "type": "Feature", "properties": { "stop_id": "IUT1", "stop_name": "IUT", "stop_lat": 47.24727, "stop_lon": 5.99294, "location_type": 0, "parent_station": "st_iut", "wheelchair_boarding": 1 }, "geometry": { "type": "Point", "coordinates": [ 5.99294, 47.24727 ] } },
{ "type": "Feature", "properties": { "stop_id": "OBSAFPA2", "stop_name": "AFPA", "stop_lat": 47.24676, "stop_lon": 5.99651, "location_type": 0, "parent_station": "st_afpa", "wheelchair_boarding": 1 }, "geometry": { "type": "Point", "coordinates": [ 5.99651, 47.24676 ] } },
{ "type": "Feature", "properties": { "stop_id": "PALSPOR1", "stop_name": "Palais des Sports", "stop_lat": 47.24593, "stop_lon": 6.0007, "location_type": 0, "parent_station": "st_palais_des_sports", "wheelchair_boarding": 1 }, "geometry": { "type": "Point", "coordinates": [ 6.0007, 47.24593 ] } },
{ "type": "Feature", "properties": { "stop_id": "STALAGR1", "stop_name": "Stade Léo Lagrange", "stop_lat": 47.244072, "stop_lon": 6.0048947, "location_type": 0, "parent_station": "st_stade_leo_lagrange", "wheelchair_boarding": 1 }, "geometry": { "type": "Point", "coordinates": [ 6.0048947, 47.244072 ] } },
{ "type": "Feature", "properties": { "stop_id": "GAREVIO1", "stop_name": "Gare Viotte", "stop_lat": 47.24618, "stop_lon": 6.022168, "location_type": 0, "parent_station": "st_gare_viotte", "wheelchair_boarding": 1 }, "geometry": { "type": "Point", "coordinates": [ 6.022168, 47.24618 ] } },
{ "type": "Feature", "properties": { "stop_id": "ISENBAR2", "stop_name": "Isenbart", "stop_lat": 47.242767, "stop_lon": 6.025262, "location_type": 0, "parent_station": "st_isenbart", "wheelchair_boarding": 1 }, "geometry": { "type": "Point", "coordinates": [ 6.025262, 47.242767 ] } },
{ "type": "Feature", "properties": { "stop_id": "FOUNOTTE", "stop_name": "Founottes", "stop_lat": 47.261044, "stop_lon": 5.995986, "location_type": 0, "parent_station": "st_founottes", "wheelchair_boarding": 0 }, "geometry": { "type": "Point", "coordinates": [ 5.995986, 47.261044 ] } },
{ "type": "Feature", "properties": { "stop_id": "SCL3", "stop_name": "St Claude", "stop_lat": 47.258938, "stop_lon": 6.009645, "location_type": 0, "parent_station": "st_st_claude", "wheelchair_boarding": 1 }, "geometry": { "type": "Point", "coordinates": [ 6.009645, 47.258938 ] } },
{ "type": "Feature", "properties": { "stop_id": "CHATEAU1", "stop_name": "Châteaufarine", "stop_lat": 47.215794, "stop_lon": 5.949156, "location_type": 0, "parent_station": "st_chateaufarine", "wheelchair_boarding": 1 }, "geometry": { "type": "Point", "coordinates": [ 5.949156, 47.215794 ] } },
{ "type": "Feature", "properties": { "stop_id": "CHOPIN4", "stop_name": "Chopin", "stop_lat": 47.262215, "stop_lon": 6.040486, "location_type": 0, "parent_station": "st_chopin", "wheelchair_boarding": 1 }, "geometry": { "type": "Point", "coordinates": [ 6.040486, 47.262215 ] } },
{ "type": "Feature", "properties": { "stop_id": "GOUNOD2", "stop_name": "Gounod", "stop_lat": 47.261646, "stop_lon": 6.036367, "location_type": 0, "parent_station": "st_gounod", "wheelchair_boarding": 1 }, "geometry": { "type": "Point", "coordinates": [ 6.036367, 47.261646 ] } },
{ "type": "Feature", "properties": { "stop_id": "QUATVEN2", "stop_name": "4 Vents", "stop_lat": 47.259567, "stop_lon": 6.029016, "location_type": 0, "parent_station": "st_4_vents", "wheelchair_boarding": 1 }, "geometry": { "type": "Point", "coordinates": [ 6.029016, 47.259567 ] } },
{ "type": "Feature", "properties": { "stop_id": "LANCHY1", "stop_name": "Lanchy", "stop_lat": 47.25871, "stop_lon": 6.028651, "location_type": 0, "parent_station": "st_lanchy", "wheelchair_boarding": 0 }, "geometry": { "type": "Point", "coordinates": [ 6.028651, 47.25871 ] } },
{ "type": "Feature", "properties": { "stop_id": "FLUAGA2", "stop_name": "Fluttes Agasses", "stop_lat": 47.257416, "stop_lon": 6.028446, "location_type": 0, "parent_station": "st_fluttes_agasses", "wheelchair_boarding": 0 }, "geometry": { "type": "Point", "coordinates": [ 6.028446, 47.257416 ] } },
{ "type": "Feature", "properties": { "stop_id": "PBT2", "stop_name": "Paul Bert", "stop_lat": 47.254982, "stop_lon": 6.028084, "location_type": 0, "parent_station": "st_paul_bert", "wheelchair_boarding": 1 }, "geometry": { "type": "Point", "coordinates": [ 6.028084, 47.254982 ] } },
{ "type": "Feature", "properties": { "stop_id": "DUCHAIL1", "stop_name": "Duchaillut", "stop_lat": 47.25307, "stop_lon": 6.03025, "location_type": 0, "parent_station": "st_duchaillut", "wheelchair_boarding": 0 }, "geometry": { "type": "Point", "coordinates": [ 6.03025, 47.25307 ] } },
{ "type": "Feature", "properties": { "stop_id": "SUARD1", "stop_name": "Suard", "stop_lat": 47.25021, "stop_lon": 6.029984, "location_type": 0, "parent_station": "st_suard", "wheelchair_boarding": 0 }, "geometry": { "type": "Point", "coordinates": [ 6.029984, 47.25021 ] } },
{ "type": "Feature", "properties": { "stop_id": "CROIXAR2", "stop_name": "Croix d'Arènes", "stop_lat": 47.235172, "stop_lon": 6.012653, "location_type": 0, "parent_station": "st_croix_darenes", "wheelchair_boarding": 0 }, "geometry": { "type": "Point", "coordinates": [ 6.012653, 47.235172 ] } },
{ "type": "Feature", "properties": { "stop_id": "LABUTTE2", "stop_name": "La Butte", "stop_lat": 47.234295, "stop_lon": 6.008565, "location_type": 0, "parent_station": "st_la_butte", "wheelchair_boarding": 0 }, "geometry": { "type": "Point", "coordinates": [ 6.008565, 47.234295 ] } },
{ "type": "Feature", "properties": { "stop_id": "JEANJAU2", "stop_name": "Jean Jaurès", "stop_lat": 47.232353, "stop_lon": 6.001019, "location_type": 0, "parent_station": "st_jean_jaures", "wheelchair_boarding": 1 }, "geometry": { "type": "Point", "coordinates": [ 6.001019, 47.232353 ] } },
{ "type": "Feature", "properties": { "stop_id": "RESIDEN2", "stop_name": "Résidence", "stop_lat": 47.23164, "stop_lon": 5.998152, "location_type": 0, "parent_station": "st_residence", "wheelchair_boarding": 0 }, "geometry": { "type": "Point", "coordinates": [ 5.998152, 47.23164 ] } },
{ "type": "Feature", "properties": { "stop_id": "BASC2", "stop_name": "Bascule", "stop_lat": 47.230316, "stop_lon": 5.993398, "location_type": 0, "parent_station": "st_bascule", "wheelchair_boarding": 0 }, "geometry": { "type": "Point", "coordinates": [ 5.993398, 47.230316 ] } },
{ "type": "Feature", "properties": { "stop_id": "CONCORD2", "stop_name": "Concorde", "stop_lat": 47.229233, "stop_lon": 5.989507, "location_type": 0, "parent_station": "st_concorde", "wheelchair_boarding": 1 }, "geometry": { "type": "Point", "coordinates": [ 5.989507, 47.229233 ] } },
{ "type": "Feature", "properties": { "stop_id": "ORATOIR2", "stop_name": "Oratoire", "stop_lat": 47.228016, "stop_lon": 5.984114, "location_type": 0, "parent_station": "st_oratoire", "wheelchair_boarding": 1 }, "geometry": { "type": "Point", "coordinates": [ 5.984114, 47.228016 ] } },
{ "type": "Feature", "properties": { "stop_id": "FLANDRE3", "stop_name": "Flandres", "stop_lat": 47.22533, "stop_lon": 5.972164, "location_type": 0, "parent_station": "st_flandres", "wheelchair_boarding": 1 }, "geometry": { "type": "Point", "coordinates": [ 5.972164, 47.22533 ] } },
{ "type": "Feature", "properties": { "stop_id": "ARTOIS4", "stop_name": "Artois", "stop_lat": 47.22443, "stop_lon": 5.97165, "location_type": 0, "parent_station": "st_artois", "wheelchair_boarding": 1 }, "geometry": { "type": "Point", "coordinates": [ 5.97165, 47.22443 ] } },
{ "type": "Feature", "properties": { "stop_id": "COLDIDE2", "stop_name": "Collège Diderot", "stop_lat": 47.221844, "stop_lon": 5.97055, "location_type": 0, "parent_station": "st_college_diderot", "wheelchair_boarding": 1 }, "geometry": { "type": "Point", "coordinates": [ 5.97055, 47.221844 ] } },
{ "type": "Feature", "properties": { "stop_id": "ILDFRAN3", "stop_name": "Ile de France", "stop_lat": 47.222607, "stop_lon": 5.966684, "location_type": 0, "parent_station": "st_ile_de_france", "wheelchair_boarding": 1 }, "geometry": { "type": "Point", "coordinates": [ 5.966684, 47.222607 ] } },
{ "type": "Feature", "properties": { "stop_id": "PIEMONT1", "stop_name": "Piémont", "stop_lat": 47.222847, "stop_lon": 5.965639, "location_type": 0, "parent_station": "st_piemont", "wheelchair_boarding": 1 }, "geometry": { "type": "Point", "coordinates": [ 5.965639, 47.222847 ] } },
{ "type": "Feature", "properties": { "stop_id": "VOLTAIR1", "stop_name": "Voltaire", "stop_lat": 47.221622, "stop_lon": 5.960859, "location_type": 0, "parent_station": "st_voltaire", "wheelchair_boarding": 1 }, "geometry": { "type": "Point", "coordinates": [ 5.960859, 47.221622 ] } },
{ "type": "Feature", "properties": { "stop_id": "PAVIE1", "stop_name": "Pavie", "stop_lat": 47.22024, "stop_lon": 5.962015, "location_type": 0, "parent_station": "st_pavie", "wheelchair_boarding": 1 }, "geometry": { "type": "Point", "coordinates": [ 5.962015, 47.22024 ] } },
{ "type": "Feature", "properties": { "stop_id": "VIVARAI1", "stop_name": "Vivarais", "stop_lat": 47.219803, "stop_lon": 5.963448, "location_type": 0, "parent_station": "st_vivarais", "wheelchair_boarding": 0 }, "geometry": { "type": "Point", "coordinates": [ 5.963448, 47.219803 ] } },
{ "type": "Feature", "properties": { "stop_id": "LANGUED2", "stop_name": "Languedoc", "stop_lat": 47.218678, "stop_lon": 5.964887, "location_type": 0, "parent_station": "st_languedoc", "wheelchair_boarding": 1 }, "geometry": { "type": "Point", "coordinates": [ 5.964887, 47.218678 ] } },
{ "type": "Feature", "properties": { "stop_id": "BEARN2", "stop_name": "Béarn", "stop_lat": 47.216717, "stop_lon": 5.963327, "location_type": 0, "parent_station": "st_bearn", "wheelchair_boarding": 1 }, "geometry": { "type": "Point", "coordinates": [ 5.963327, 47.216717 ] } },
{ "type": "Feature", "properties": { "stop_id": "DEVIGNY2", "stop_name": "De Vigny", "stop_lat": 47.215397, "stop_lon": 5.961896, "location_type": 0, "parent_station": "st_de_vigny", "wheelchair_boarding": 1 }, "geometry": { "type": "Point", "coordinates": [ 5.961896, 47.215397 ] } },
{ "type": "Feature", "properties": { "stop_id": "MAROT2", "stop_name": "Marot", "stop_lat": 47.21816, "stop_lon": 5.957604, "location_type": 0, "parent_station": "st_marot", "wheelchair_boarding": 1 }, "geometry": { "type": "Point", "coordinates": [ 5.957604, 47.21816 ] } },
{ "type": "Feature", "properties": { "stop_id": "RENECHA2", "stop_name": "René Char", "stop_lat": 47.218273, "stop_lon": 5.95185, "location_type": 0, "parent_station": "st_rene_char", "wheelchair_boarding": 0 }, "geometry": { "type": "Point", "coordinates": [ 5.95185, 47.218273 ] } },
{ "type": "Feature", "properties": { "stop_id": "PALEI", "stop_name": "Palente Espace Industriel", "stop_lat": 47.265003, "stop_lon": 6.051061, "location_type": 0, "parent_station": "st_palente_espace_industriel", "wheelchair_boarding": 1 }, "geometry": { "type": "Point", "coordinates": [ 6.051061, 47.265003 ] } },
{ "type": "Feature", "properties": { "stop_id": "RENECHA1", "stop_name": "René Char", "stop_lat": 47.21853, "stop_lon": 5.952857, "location_type": 0, "parent_station": "st_rene_char", "wheelchair_boarding": 0 }, "geometry": { "type": "Point", "coordinates": [ 5.952857, 47.21853 ] } },
{ "type": "Feature", "properties": { "stop_id": "MAROT1", "stop_name": "Marot", "stop_lat": 47.21816, "stop_lon": 5.957554, "location_type": 0, "parent_station": "st_marot", "wheelchair_boarding": 1 }, "geometry": { "type": "Point", "coordinates": [ 5.957554, 47.21816 ] } },
{ "type": "Feature", "properties": { "stop_id": "DEVIGNY1", "stop_name": "De Vigny", "stop_lat": 47.21521, "stop_lon": 5.961123, "location_type": 0, "parent_station": "st_de_vigny", "wheelchair_boarding": 1 }, "geometry": { "type": "Point", "coordinates": [ 5.961123, 47.21521 ] } },
{ "type": "Feature", "properties": { "stop_id": "BEARN1", "stop_name": "Béarn", "stop_lat": 47.21667, "stop_lon": 5.963335, "location_type": 0, "parent_station": "st_bearn", "wheelchair_boarding": 0 }, "geometry": { "type": "Point", "coordinates": [ 5.963335, 47.21667 ] } },
{ "type": "Feature", "properties": { "stop_id": "LANGUED1", "stop_name": "Languedoc", "stop_lat": 47.218864, "stop_lon": 5.965041, "location_type": 0, "parent_station": "st_languedoc", "wheelchair_boarding": 1 }, "geometry": { "type": "Point", "coordinates": [ 5.965041, 47.218864 ] } },
{ "type": "Feature", "properties": { "stop_id": "VIVARAI2", "stop_name": "Vivarais", "stop_lat": 47.21982, "stop_lon": 5.963475, "location_type": 0, "parent_station": "st_vivarais", "wheelchair_boarding": 1 }, "geometry": { "type": "Point", "coordinates": [ 5.963475, 47.21982 ] } },
{ "type": "Feature", "properties": { "stop_id": "PAVIE2", "stop_name": "Pavie", "stop_lat": 47.220573, "stop_lon": 5.961742, "location_type": 0, "parent_station": "st_pavie", "wheelchair_boarding": 0 }, "geometry": { "type": "Point", "coordinates": [ 5.961742, 47.220573 ] } },
{ "type": "Feature", "properties": { "stop_id": "VOLTAIR2", "stop_name": "Voltaire", "stop_lat": 47.221916, "stop_lon": 5.962137, "location_type": 0, "parent_station": "st_voltaire", "wheelchair_boarding": 1 }, "geometry": { "type": "Point", "coordinates": [ 5.962137, 47.221916 ] } },
{ "type": "Feature", "properties": { "stop_id": "PIEMONT2", "stop_name": "Piémont", "stop_lat": 47.222805, "stop_lon": 5.965665, "location_type": 0, "parent_station": "st_piemont", "wheelchair_boarding": 1 }, "geometry": { "type": "Point", "coordinates": [ 5.965665, 47.222805 ] } },
{ "type": "Feature", "properties": { "stop_id": "ILDFRAN1", "stop_name": "Ile de France", "stop_lat": 47.222363, "stop_lon": 5.966775, "location_type": 0, "parent_station": "st_ile_de_france", "wheelchair_boarding": 1 }, "geometry": { "type": "Point", "coordinates": [ 5.966775, 47.222363 ] } },
{ "type": "Feature", "properties": { "stop_id": "COLDIDE1", "stop_name": "Collège Diderot", "stop_lat": 47.221764, "stop_lon": 5.970604, "location_type": 0, "parent_station": "st_college_diderot", "wheelchair_boarding": 1 }, "geometry": { "type": "Point", "coordinates": [ 5.970604, 47.221764 ] } },
{ "type": "Feature", "properties": { "stop_id": "ARTOIS3", "stop_name": "Artois", "stop_lat": 47.223988, "stop_lon": 5.971575, "location_type": 0, "parent_station": "st_artois", "wheelchair_boarding": 1 }, "geometry": { "type": "Point", "coordinates": [ 5.971575, 47.223988 ] } },
{ "type": "Feature", "properties": { "stop_id": "FLANDRE1", "stop_name": "Flandres", "stop_lat": 47.224888, "stop_lon": 5.973512, "location_type": 0, "parent_station": "st_flandres", "wheelchair_boarding": 1 }, "geometry": { "type": "Point", "coordinates": [ 5.973512, 47.224888 ] } },
{ "type": "Feature", "properties": { "stop_id": "ORATOIR1", "stop_name": "Oratoire", "stop_lat": 47.22803, "stop_lon": 5.984458, "location_type": 0, "parent_station": "st_oratoire", "wheelchair_boarding": 1 }, "geometry": { "type": "Point", "coordinates": [ 5.984458, 47.22803 ] } },
{ "type": "Feature", "properties": { "stop_id": "CONCORD1", "stop_name": "Concorde", "stop_lat": 47.229027, "stop_lon": 5.988835, "location_type": 0, "parent_station": "st_concorde", "wheelchair_boarding": 1 }, "geometry": { "type": "Point", "coordinates": [ 5.988835, 47.229027 ] } },
{ "type": "Feature", "properties": { "stop_id": "BASC1", "stop_name": "Bascule", "stop_lat": 47.230595, "stop_lon": 5.994396, "location_type": 0, "parent_station": "st_bascule", "wheelchair_boarding": 1 }, "geometry": { "type": "Point", "coordinates": [ 5.994396, 47.230595 ] } },
{ "type": "Feature", "properties": { "stop_id": "RESIDEN1", "stop_name": "Résidence", "stop_lat": 47.2314, "stop_lon": 5.99742, "location_type": 0, "parent_station": "st_residence", "wheelchair_boarding": 1 }, "geometry": { "type": "Point", "coordinates": [ 5.99742, 47.2314 ] } },
{ "type": "Feature", "properties": { "stop_id": "JEANJAU1", "stop_name": "Jean Jaurès", "stop_lat": 47.232517, "stop_lon": 6.002034, "location_type": 0, "parent_station": "st_jean_jaures", "wheelchair_boarding": 1 }, "geometry": { "type": "Point", "coordinates": [ 6.002034, 47.232517 ] } },
{ "type": "Feature", "properties": { "stop_id": "LABUTTE3", "stop_name": "La Butte", "stop_lat": 47.234303, "stop_lon": 6.008889, "location_type": 0, "parent_station": "st_la_butte", "wheelchair_boarding": 0 }, "geometry": { "type": "Point", "coordinates": [ 6.008889, 47.234303 ] } },
{ "type": "Feature", "properties": { "stop_id": "CROIXAR1", "stop_name": "Croix d'Arènes", "stop_lat": 47.234863, "stop_lon": 6.012517, "location_type": 0, "parent_station": "st_croix_darenes", "wheelchair_boarding": 0 }, "geometry": { "type": "Point", "coordinates": [ 6.012517, 47.234863 ] } },
{ "type": "Feature", "properties": { "stop_id": "FOURIER1", "stop_name": "Fourier", "stop_lat": 47.251152, "stop_lon": 6.030501, "location_type": 0, "parent_station": "st_fourier", "wheelchair_boarding": 0 }, "geometry": { "type": "Point", "coordinates": [ 6.030501, 47.251152 ] } },
{ "type": "Feature", "properties": { "stop_id": "PDC1", "stop_name": "Pont des Cras", "stop_lat": 47.252552, "stop_lon": 6.030527, "location_type": 0, "parent_station": "st_pont_des_cras", "wheelchair_boarding": 1 }, "geometry": { "type": "Point", "coordinates": [ 6.030527, 47.252552 ] } },
{ "type": "Feature", "properties": { "stop_id": "PBT1", "stop_name": "Paul Bert", "stop_lat": 47.255077, "stop_lon": 6.028113, "location_type": 0, "parent_station": "st_paul_bert", "wheelchair_boarding": 1 }, "geometry": { "type": "Point", "coordinates": [ 6.028113, 47.255077 ] } },
{ "type": "Feature", "properties": { "stop_id": "FLUAGA1", "stop_name": "Fluttes Agasses", "stop_lat": 47.256897, "stop_lon": 6.028307, "location_type": 0, "parent_station": "st_fluttes_agasses", "wheelchair_boarding": 0 }, "geometry": { "type": "Point", "coordinates": [ 6.028307, 47.256897 ] } },
{ "type": "Feature", "properties": { "stop_id": "LANCHY2", "stop_name": "Lanchy", "stop_lat": 47.258602, "stop_lon": 6.02871, "location_type": 0, "parent_station": "st_lanchy", "wheelchair_boarding": 0 }, "geometry": { "type": "Point", "coordinates": [ 6.02871, 47.258602 ] } },
{ "type": "Feature", "properties": { "stop_id": "QUATVEN1", "stop_name": "4 Vents", "stop_lat": 47.259666, "stop_lon": 6.029967, "location_type": 0, "parent_station": "st_4_vents", "wheelchair_boarding": 1 }, "geometry": { "type": "Point", "coordinates": [ 6.029967, 47.259666 ] } },
{ "type": "Feature", "properties": { "stop_id": "GOUNOD1", "stop_name": "Gounod", "stop_lat": 47.261578, "stop_lon": 6.036547, "location_type": 0, "parent_station": "st_gounod", "wheelchair_boarding": 0 }, "geometry": { "type": "Point", "coordinates": [ 6.036547, 47.261578 ] } },
{ "type": "Feature", "properties": { "stop_id": "CHOPIN1", "stop_name": "Chopin", "stop_lat": 47.26223, "stop_lon": 6.039651, "location_type": 0, "parent_station": "st_chopin", "wheelchair_boarding": 1 }, "geometry": { "type": "Point", "coordinates": [ 6.039651, 47.26223 ] } },
{ "type": "Feature", "properties": { "stop_id": "LYCEE2", "stop_name": "Lycée Pergaud", "stop_lat": 47.26349, "stop_lon": 6.044595, "location_type": 0, "parent_station": "st_lycee_pergaud", "wheelchair_boarding": 1 }, "geometry": { "type": "Point", "coordinates": [ 6.044595, 47.26349 ] } },
{ "type": "Feature", "properties": { "stop_id": "BREGILLE", "stop_name": "Bregille", "stop_lat": 47.243404, "stop_lon": 6.052358, "location_type": 0, "parent_station": "st_bregille", "wheelchair_boarding": 1 }, "geometry": { "type": "Point", "coordinates": [ 6.052358, 47.243404 ] } },
{ "type": "Feature", "properties": { "stop_id": "CHARMIL2", "stop_name": "Charmilles", "stop_lat": 47.25533, "stop_lon": 6.013961, "location_type": 0, "parent_station": "st_charmilles", "wheelchair_boarding": 1 }, "geometry": { "type": "Point", "coordinates": [ 6.013961, 47.25533 ] } },
{ "type": "Feature", "properties": { "stop_id": "JUSTICE2", "stop_name": "Justices", "stop_lat": 47.25436, "stop_lon": 6.01496, "location_type": 0, "parent_station": "st_justices", "wheelchair_boarding": 1 }, "geometry": { "type": "Point", "coordinates": [ 6.01496, 47.25436 ] } },
{ "type": "Feature", "properties": { "stop_id": "VESOUL4", "stop_name": "Vesoul", "stop_lat": 47.25319, "stop_lon": 6.016087, "location_type": 0, "parent_station": "st_vesoul", "wheelchair_boarding": 1 }, "geometry": { "type": "Point", "coordinates": [ 6.016087, 47.25319 ] } },
{ "type": "Feature", "properties": { "stop_id": "LUMIERE2", "stop_name": "Lumière", "stop_lat": 47.250782, "stop_lon": 6.018365, "location_type": 0, "parent_station": "st_lumiere", "wheelchair_boarding": 1 }, "geometry": { "type": "Point", "coordinates": [ 6.018365, 47.250782 ] } },
{ "type": "Feature", "properties": { "stop_id": "LARMET2", "stop_name": "Larmet", "stop_lat": 47.24926, "stop_lon": 6.020014, "location_type": 0, "parent_station": "st_larmet", "wheelchair_boarding": 1 }, "geometry": { "type": "Point", "coordinates": [ 6.020014, 47.24926 ] } },
{ "type": "Feature", "properties": { "stop_id": "GAVIONO1", "stop_name": "Gare Viotte Nord", "stop_lat": 47.24695, "stop_lon": 6.019811, "location_type": 0, "parent_station": "st_gare_viotte_nord", "wheelchair_boarding": 1 }, "geometry": { "type": "Point", "coordinates": [ 6.019811, 47.24695 ] } },
{ "type": "Feature", "properties": { "stop_id": "GAREMOU1", "stop_name": "Gare de la Mouillère", "stop_lat": 47.240574, "stop_lon": 6.033455, "location_type": 0, "parent_station": "st_gare_de_la_mouillere", "wheelchair_boarding": 0 }, "geometry": { "type": "Point", "coordinates": [ 6.033455, 47.240574 ] } },
{ "type": "Feature", "properties": { "stop_id": "DIDEROT1", "stop_name": "Diderot", "stop_lat": 47.24245, "stop_lon": 6.033733, "location_type": 0, "parent_station": "st_diderot", "wheelchair_boarding": 0 }, "geometry": { "type": "Point", "coordinates": [ 6.033733, 47.24245 ] } },
{ "type": "Feature", "properties": { "stop_id": "LYSPAUL1", "stop_name": "Lycée St Paul", "stop_lat": 47.245857, "stop_lon": 6.035329, "location_type": 0, "parent_station": "st_lycee_st_paul", "wheelchair_boarding": 1 }, "geometry": { "type": "Point", "coordinates": [ 6.035329, 47.245857 ] } },
{ "type": "Feature", "properties": { "stop_id": "MERMOZ1", "stop_name": "Mermoz", "stop_lat": 47.247368, "stop_lon": 6.037446, "location_type": 0, "parent_station": "st_mermoz", "wheelchair_boarding": 0 }, "geometry": { "type": "Point", "coordinates": [ 6.037446, 47.247368 ] } },
{ "type": "Feature", "properties": { "stop_id": "BRULEFO1", "stop_name": "Brûlefoin", "stop_lat": 47.249584, "stop_lon": 6.042246, "location_type": 0, "parent_station": "st_brulefoin", "wheelchair_boarding": 0 }, "geometry": { "type": "Point", "coordinates": [ 6.042246, 47.249584 ] } },
{ "type": "Feature", "properties": { "stop_id": "DUET1", "stop_name": "Duet", "stop_lat": 47.248276, "stop_lon": 6.043374, "location_type": 0, "parent_station": "st_duet", "wheelchair_boarding": 1 }, "geometry": { "type": "Point", "coordinates": [ 6.043374, 47.248276 ] } },
{ "type": "Feature", "properties": { "stop_id": "MAGELLA1", "stop_name": "Magellan", "stop_lat": 47.24885, "stop_lon": 6.047121, "location_type": 0, "parent_station": "st_magellan", "wheelchair_boarding": 0 }, "geometry": { "type": "Point", "coordinates": [ 6.047121, 47.24885 ] } },
{ "type": "Feature", "properties": { "stop_id": "DONZELO1", "stop_name": "Donzelot", "stop_lat": 47.249332, "stop_lon": 6.051472, "location_type": 0, "parent_station": "st_donzelot", "wheelchair_boarding": 0 }, "geometry": { "type": "Point", "coordinates": [ 6.051472, 47.249332 ] } },
{ "type": "Feature", "properties": { "stop_id": "FOYER1", "stop_name": "Foyer", "stop_lat": 47.249763, "stop_lon": 6.055562, "location_type": 0, "parent_station": "st_foyer", "wheelchair_boarding": 0 }, "geometry": { "type": "Point", "coordinates": [ 6.055562, 47.249763 ] } },
{ "type": "Feature", "properties": { "stop_id": "BOISPAU2", "stop_name": "Bois St Paul", "stop_lat": 47.251442, "stop_lon": 6.058323, "location_type": 0, "parent_station": "st_bois_st_paul", "wheelchair_boarding": 0 }, "geometry": { "type": "Point", "coordinates": [ 6.058323, 47.251442 ] } },
{ "type": "Feature", "properties": { "stop_id": "CLAIRSO1", "stop_name": "Clairs Soleils", "stop_lat": 47.24992, "stop_lon": 6.058834, "location_type": 0, "parent_station": "st_clairs_soleils", "wheelchair_boarding": 1 }, "geometry": { "type": "Point", "coordinates": [ 6.058834, 47.24992 ] } },
{ "type": "Feature", "properties": { "stop_id": "BREME1", "stop_name": "Brême", "stop_lat": 47.24819, "stop_lon": 6.057385, "location_type": 0, "parent_station": "st_breme", "wheelchair_boarding": 0 }, "geometry": { "type": "Point", "coordinates": [ 6.057385, 47.24819 ] } },
{ "type": "Feature", "properties": { "stop_id": "ENVELME1", "stop_name": "Envelmey", "stop_lat": 47.24672, "stop_lon": 6.054475, "location_type": 0, "parent_station": "st_envelmey", "wheelchair_boarding": 0 }, "geometry": { "type": "Point", "coordinates": [ 6.054475, 47.24672 ] } },
{ "type": "Feature", "properties": { "stop_id": "MIRABEA1", "stop_name": "Mirabeau", "stop_lat": 47.245792, "stop_lon": 6.051734, "location_type": 0, "parent_station": "st_mirabeau", "wheelchair_boarding": 0 }, "geometry": { "type": "Point", "coordinates": [ 6.051734, 47.245792 ] } },
{ "type": "Feature", "properties": { "stop_id": "DANTON1", "stop_name": "Danton", "stop_lat": 47.243538, "stop_lon": 6.049076, "location_type": 0, "parent_station": "st_danton", "wheelchair_boarding": 1 }, "geometry": { "type": "Point", "coordinates": [ 6.049076, 47.243538 ] } },
{ "type": "Feature", "properties": { "stop_id": "DANTON2", "stop_name": "Danton", "stop_lat": 47.243885, "stop_lon": 6.048732, "location_type": 0, "parent_station": "st_danton", "wheelchair_boarding": 1 }, "geometry": { "type": "Point", "coordinates": [ 6.048732, 47.243885 ] } },
{ "type": "Feature", "properties": { "stop_id": "MIRABEA2", "stop_name": "Mirabeau", "stop_lat": 47.24599, "stop_lon": 6.052923, "location_type": 0, "parent_station": "st_mirabeau", "wheelchair_boarding": 0 }, "geometry": { "type": "Point", "coordinates": [ 6.052923, 47.24599 ] } },
{ "type": "Feature", "properties": { "stop_id": "ENVELME2", "stop_name": "Envelmey", "stop_lat": 47.246902, "stop_lon": 6.05485, "location_type": 0, "parent_station": "st_envelmey", "wheelchair_boarding": 0 }, "geometry": { "type": "Point", "coordinates": [ 6.05485, 47.246902 ] } },
{ "type": "Feature", "properties": { "stop_id": "BREME2", "stop_name": "Brême", "stop_lat": 47.24863, "stop_lon": 6.057645, "location_type": 0, "parent_station": "st_breme", "wheelchair_boarding": 0 }, "geometry": { "type": "Point", "coordinates": [ 6.057645, 47.24863 ] } },
{ "type": "Feature", "properties": { "stop_id": "CLAIRSO2", "stop_name": "Clairs Soleils", "stop_lat": 47.25037, "stop_lon": 6.059256, "location_type": 0, "parent_station": "st_clairs_soleils", "wheelchair_boarding": 1 }, "geometry": { "type": "Point", "coordinates": [ 6.059256, 47.25037 ] } },